[{"title":"둥지속하얀집","address":"강원도 홍천군 내촌면 광암리 472-3","phone":"010-8834-0886","lat":37.8639913,"lng":128.1107392},
{"title":"금당롯지","address":"강원도 평창군 용평면 재산2리 1614-7","phone":"010-6406-8584","lat":37.6066357,"lng":128.4401461},
{"title":"아리스토이펜션","address":"강원도 양양군 강현면 회룡리 221번지","phone":"010-7145-9669","lat":38.1334222,"lng":128.5736685},
{"title":"아스테리아펜션","address":"강원도 평창군 미탄면 미하리 198-9","phone":"010-5363-4321","lat":37.291839,"lng":128.539969},
{"title":"테라스의아침","address":"강원도 홍천군 서면 팔봉리 83","phone":"1091246789","lat":37.6968749,"lng":127.7101366},
{"title":"산타힐","address":"강원도 양양군 강현면 하복리 488","phone":"010-9243-8495","lat":38.1449449,"lng":128.5760222},
{"title":"마이비치","address":"강원도 양양군 손양면 동호리 1-72","phone":"010-8840-0384","lat":38.053988,"lng":128.6860094},
{"title":"아트인설악스파","address":"강원도 양양군 강현면 중복리 109-3","phone":"033-673-3216","lat":38.1412912,"lng":128.5725779},
{"title":"스프랑게리","address":"강원도 춘천시 남산면 방곡리 418-5","phone":"010-4554-6478","lat":37.8040092,"lng":127.6362491},
{"title":"대관령가는길","address":"강원도 평창군 대관령면 247","phone":"1086718169","lat":37.6643955,"lng":128.6617972},
{"title":"그린힐펜션","address":"강원도 평창군 봉평면 면온리 330","phone":"033-334-7780","lat":37.5566242,"lng":128.3639407},
{"title":"리버샤인빌리지","address":"강원도 홍천군 서면 팔봉리 166","phone":"010-7350-1557","lat":37.6872608,"lng":127.7150154},
{"title":"오즈의마법사","address":"강원도 홍천군 서면 팔봉리 166-6","phone":"010-3259-7834","lat":37.6867908,"lng":127.7147803},
{"title":"펜션넷","address":"강원도 춘천시 후평동 692-23 4층","phone":"15447541--","lat":37.8809098,"lng":127.7464966},
{"title":"오색연가","address":"강원도 양양군 서면 오색리 87-1","phone":"01032653841--","lat":38.0743651,"lng":128.5006447},
{"title":"라벤다펜션","address":"강원도 강릉시 안현동 369번지","phone":"033-647-5700","lat":37.8069451,"lng":128.8903355},
{"title":"아트인해븐","address":"강원도 강릉시 사천면 방동리 63-14","phone":"010-3347-5139","lat":37.8263709,"lng":128.8792823},
{"title":"펜션필하모니","address":"강원도 홍천군 서면 도롱골길 229 (팔봉리 10-2)","phone":"010-9760-4498","lat":37.6931849,"lng":127.7197756},
{"title":"프리지아펜션","address":"강원도 양양군 강현면 정암리 538-2","phone":"033-671-0509","lat":38.1489523,"lng":128.6031587},
{"title":"아름들펜션","address":"강원도 양양군 현북면 상광정리 671번지","phone":"033-672-5955","lat":38.0082343,"lng":128.6916785},
{"title":"아트인아일랜드","address":"강원도 평창군 봉평면 원길리 1041-1","phone":"010-3005-6315","lat":37.6209246,"lng":128.354318},
{"title":"퀸즈가든","address":"강원도 평창군 대관령면 횡계2리 85-6","phone":"010-9012-2583","lat":37.6797749,"lng":128.7242779},
{"title":"몽비쥬펜션","address":"강원도 양양군 서연 미천리 41-1 미천골휴양림내","phone":"01063693535--","lat":38.0753925,"lng":128.6188503},
{"title":"바다와소나무","address":"강원도 양양군 강현면 정암1리 105번지","phone":"033-671-6610","lat":38.1499421,"lng":128.607527},
{"title":"아뜰리에펜션","address":"강원도 영월군 주천면 판운리 493-3","phone":"010-6295-1059","lat":37.2952204,"lng":128.3253708},
{"title":"하얀허브","address":"강원도 춘천시 방곡리 625번지","phone":"010-5289-6852","lat":37.7978417,"lng":127.6301793},
{"title":"들꽃편지","address":"강원도 강릉시 연곡면 삼산리 609","phone":"010-6375-3810","lat":37.8496955,"lng":128.7016589},
{"title":"대관령살바토레","address":"강원도 평창군 대관령면 용산리 266-7","phone":"010-9095-4399","lat":37.6720187,"lng":128.6695505},
{"title":"구학산방","address":"강원도 원주시 신림면 구학리 422-1","phone":"033-762-3399","lat":37.1972528,"lng":128.0557858},
{"title":"삐끄니끄","address":"강원도 춘천시 남산면 방곡리 252-2","phone":"010-5029-8900","lat":37.7966364,"lng":127.6422557},
{"title":"엘솔","address":"강원도 영월군 주천면 판운리 426-8번지","phone":"010-5227-9588","lat":37.2831496,"lng":128.3300587},
{"title":"인마이라이프","address":"강원도 홍천군 서면 팔봉리 978","phone":"010-4182-0638","lat":37.6984979,"lng":127.7054899},
{"title":"아트인엘펜션","address":"강원 강릉시 안현동 53-7","phone":"010-3645-4382","lat":37.8080816,"lng":128.8994195},
{"title":"하늘빛펜션","address":"강원도 속초시 조양동 790번지","phone":"010-9049-5450","lat":38.1817862,"lng":128.5808471},
{"title":"씨엔밸리펜션","address":"강원도 양양군 북평리 146","phone":"033-672-2661","lat":38.0652072,"lng":128.6061538},
{"title":"물소리새소리","address":"강원도 양양군 서면 송천리 17번지","phone":"033-673-5030","lat":38.045471,"lng":128.5611782},
{"title":"펜스토리","address":"강원도 평창군 봉평면 면온리 832번지","phone":"010-4229-1039","lat":37.5642039,"lng":128.3444615},
{"title":"경포비치펜션","address":"강원도 강릉시 안현동 55-4번지","phone":"010-8792-9721","lat":37.8089124,"lng":128.8995306},
{"title":"아트인마이원펜션","address":"강원도 강릉시 강문동 11-13번지","phone":"010-6373-4178","lat":37.7954376,"lng":128.915922},
{"title":"솔바람펜션","address":"강원도 양양군 서면 서림리 371-1","phone":"010-8320-2040","lat":37.9582124,"lng":128.5131832},
{"title":"숲속의하얀별펜션","address":"강원도 춘천시 남산면 방곡리 446","phone":"010-3883-5824","lat":37.7935296,"lng":127.635458},
{"title":"선영아사랑해펜션","address":"강원도 평창군 방림면 계촌5리 2040-1","phone":"070-4234-1486","lat":37.4612109,"lng":128.2753233},
{"title":"경포하울펜션","address":"강원도 강릉시 안현동 52-2","phone":"010-4860-4799","lat":37.8087809,"lng":128.8997607},
{"title":"몰디브펜션","address":"강원도 양양군 강현면 용호리 2-11","phone":"010-7159-9386","lat":38.1333757,"lng":128.6207464},
{"title":"동화속정원","address":"강원도 평창군 대관령면 차항리 124-5번지","phone":"010-6662-2507","lat":37.7060587,"lng":128.6888437},
{"title":"우드힐펜션","address":"강원도 양양군 강현면 회룡리 347번지","phone":"010-4871-8484","lat":38.1322678,"lng":128.5694629},
{"title":"수아르펜션","address":"강원도 홍천군 서면 팔봉리 244-4","phone":"010-8828-5444","lat":37.680177,"lng":127.7147376},
{"title":"아침바다펜션","address":"강원도 양양군 강현면 하복리 166-7","phone":"010-4004-2823","lat":38.1405232,"lng":128.5768795},
{"title":"별앤샵펜션","address":"강원도 홍천군 서면 팔봉리 1302-10","phone":"1087775978","lat":37.675757,"lng":127.6951469},
{"title":"파밀리아펜션","address":"강원도 평창군 봉평면 흥정리 184-5","phone":"1087275177","lat":37.652557,"lng":128.3285316},
{"title":"소나무황토펜션","address":"강원도 평창군 용평면 재산리 1602-1","phone":"010-6822-7192","lat":37.5616864,"lng":128.3998698},
{"title":"빌라노빌레","address":"강원도 춘천시 남산면 서천리 326-14","phone":"010-2685-0779","lat":37.8438724,"lng":127.5405657},
{"title":"썬라이즈펜션","address":"강원도 강릉시 옥계면 도직리 60-15","phone":"01089952523--","lat":37.6060411,"lng":129.0683897},
{"title":"도원펜션","address":"강원도 정선군 북평면 나전리 257-1","phone":"010-5015-8697","lat":37.4391699,"lng":128.6252662},
{"title":"경포캐슬펜션","address":"강원도 강릉시 안현동 55-2 경포캐슬펜션","phone":"010-3391-4799","lat":37.8094147,"lng":128.8988837},
{"title":"더블루하우스","address":"강원도 영월군 영월읍 문산리 366번지","phone":"010-6396-5779","lat":37.2656074,"lng":128.5284608},
{"title":"씨엘펜션","address":"강원도 양양군 강현면 정암리 331","phone":"010-5242-4469","lat":38.1418523,"lng":128.6053316},
{"title":"등대불빛아래","address":"강원도 동해시 묵호진동 2-433","phone":"010-2639-2005","lat":37.5556625,"lng":129.1195633},
{"title":"강을품은창","address":"강원도 영월군 영월읍 팔괴리 216-9번지","phone":"010-3716-1612","lat":37.1518588,"lng":128.4921669},
{"title":"은솔펜션","address":"강원도 영월군 한반도면 신천1리 산 338번지","phone":"033-373-5566","lat":37.2365882,"lng":128.3283133},
{"title":"휴가를부탁해","address":"강원도 영월군 김삿갓면 내리 388-11","phone":"010-5410-8591","lat":37.1038964,"lng":128.682732},
{"title":"비수구미펜션","address":"강원도 화천군 화천읍 동촌2리 2395-1","phone":"010-4344-2102","lat":38.104288,"lng":127.7071565},
{"title":"강촌산울림펜션","address":"강원도 춘천시 남산면 방곡리 204","phone":"010-6832-7080","lat":37.7927243,"lng":127.6378883},
{"title":"코델리아펜션","address":"강원도 양양군 손양면 동호리 1-99","phone":"010-5366-2838","lat":38.0555603,"lng":128.6733157},
{"title":"페이지102","address":"강원도 횡성군 둔내면 삽교리 190 (경강로 구두미1길)","phone":"010-5268-1846","lat":37.5748095,"lng":128.2570858},
{"title":"리뮤펜션","address":"강원도 인제군 북면 용대리 1075","phone":"010-4466-3015","lat":38.1897285,"lng":128.3266261},
{"title":"품안에펜션","address":"강원도 평창군 대관령면 횡계2리 116-24","phone":"033-335-0830","lat":37.7031357,"lng":128.7209909},
{"title":"드위트리펜션","address":"강원도 정선군 남면 무릉리 산475-22","phone":"010-6320-0760","lat":37.2351723,"lng":128.7813702},
{"title":"씨엘178","address":"강원도 고성군 토성면 천진리 178-13","phone":"010-6434-4044","lat":38.2566863,"lng":128.5603628},
{"title":"빌리지736","address":"강원도 홍천군 북방면 노일리 736","phone":"010-3270-2947","lat":37.6780054,"lng":127.7351965},
{"title":"애비로드펜션","address":"강원도 평창군 방림면 계촌리 2383","phone":"010-9091-8266","lat":37.4747779,"lng":128.2547111},
{"title":"초당지펜션","address":"강원도 삼척시 근덕면 하맹방리 830","phone":"010-5249-6806","lat":37.3869052,"lng":129.1976546},
{"title":"힐앤데일펜션","address":"강원도 홍천군 서면 대곡리 86-11","phone":"033-432-4621","lat":37.6247992,"lng":127.6632233},
{"title":"s202펜션","address":"강원도 강릉시 안현동 202-2","phone":"010-6616-7132","lat":37.8135373,"lng":128.8966907},
{"title":"밸리뷰펜션","address":"강원도 홍천군 서면 대곡리 80","phone":"010-6294-1593","lat":37.6234814,"lng":127.659279},
{"title":"블루버드펜션","address":"강원도 고성군 토성면 봉포리 166-8","phone":"010-4023-8253","lat":38.2517806,"lng":128.5659898},
{"title":"모래불펜션","address":"강원도 정선군 여랑면 유천리 277","phone":"033-562-6370","lat":37.4836554,"lng":128.7213505},
{"title":"르그랑샤리오","address":"강원도 홍천군 서면 팔봉리 977-1","phone":"033-435-3865","lat":37.698388,"lng":127.706977},
{"title":"쁘띠프라하 펜션","address":"강원도 홍천군 서면 팔봉강변길 40-23","phone":"010-8719-2099","lat":37.6940735,"lng":127.7060814},
{"title":"서현이네펜션","address":"강원도 속초시 조양동 1480-162","phone":"010-3600-4738","lat":38.1876239,"lng":128.6022343},
{"title":"리츠모텔펜션","address":"강원도 속초시 영금정로 27(동명동)","phone":"010-9638-8233","lat":38.2126746,"lng":128.599539},
{"title":"펜던트하우스","address":"강원도 평창군 대관령면 용산리 247","phone":"1036588169","lat":37.6640575,"lng":128.6613238},
{"title":"솔밭흙집","address":"강원도 강릉시 옥계면 금진리 467","phone":"010-4590-6150","lat":37.6280344,"lng":129.0450284},
{"title":"어느멋진날","address":"강원도 속초시 해오름로 161(속초시 조양동 1466-1)","phone":"010-6283-5969","lat":38.1885368,"lng":128.6037726},
{"title":"그린빌펜션","address":"강원도 홍천군 서면 팔봉리 192번지","phone":"010-2017-1333","lat":37.6802761,"lng":127.7151272},
{"title":"구학리희망캠핑장","address":"강원도 원주시 신림면 구학리 274","phone":"010-3109-1136","lat":37.2110029,"lng":128.065083},
{"title":"펜션휴","address":"강원도 고성군 토성면 봉포리 286-6","phone":"010-3454-5104","lat":38.2541539,"lng":128.5631415},
{"title":"대명비발디펜션","address":"강원도 춘천시 남산면 산수리 470-24번지","phone":"010-2203-7100","lat":37.6821918,"lng":127.6459294},
{"title":"하루와이틀펜션","address":"강원 강릉시 하남길 323-1 (강릉시 안현동 65-4)","phone":"010-4492-9898","lat":37.807608,"lng":128.8986642},
{"title":"미천골하늘아채펜션","address":"강원도 양양군 서면 미천골길 168-27","phone":"010-5322-7105","lat":37.9455331,"lng":128.5145127},
{"title":"숲속맘펜션","address":"강원도 홍천군 서면 반곡리 팔봉산로 909-22","phone":"010-8308-1661","lat":37.6915464,"lng":127.6708901},
{"title":"쏠리오펜션","address":"강원도 춘천시 남산면 서천리 319","phone":"010-8472-7800","lat":37.844366,"lng":127.5421261},
{"title":"라헨느풀빌라펜션","address":"강원도 고성군 죽왕면 가진해변길 231","phone":"010-8644-3442","lat":38.3714732,"lng":128.5069053},
{"title":"세이셀펜션","address":"강원도 춘천시 남산면 노일길 87","phone":"010-2659-2173","lat":37.7895142,"lng":127.6350531},
{"title":"허밍블루펜션","address":"강원도 강릉시 연곡면 마산길 65","phone":"010-6344-3839","lat":37.8624733,"lng":128.8456952},
{"title":"라헨느풀빌라(h동)","address":"강원도 고성군 죽왕면 가진해변길 231","phone":"010-9250-3829","lat":38.3714732,"lng":128.5069053},
{"title":"드림비치펜션","address":"강원도 강릉시 사천면 사천진리 266-6","phone":"010-3722-2833","lat":37.8423913,"lng":128.8738882},
{"title":"산들산들펜션","address":"강원도 고성군 거진읍 송포리 495-7 (고성군 거진읍 포남길 101","phone":"010-6308-4416","lat":38.4289002,"lng":128.4444457},
{"title":"프린세스펜션","address":"강원도 홍천군 서면 중방대리 412-1","phone":"010-3001-4651","lat":37.6680654,"lng":127.599295},
{"title":"비요르크","address":"강원도 홍천군 서면 오도치길 80","phone":"010-4137-9747","lat":37.6726704,"lng":127.709760},
{"title":"오즈펜션","address":"강원도 고성군 죽왕면 문암진리 463-43","phone":"010-7937-1126","lat":38.3105078,"lng":128.5420629},
{"title":"아미가쓰","address":"강원도 양양군 강현면 동해대로 3377","phone":"010-8785-7121","lat":38.139215,"lng":128.6145512},
{"title":"스테이지 풀빌라","address":"강원도 고성군 토성면 천진리 2-8","phone":"010-3100-0381","lat":38.2564771,"lng":128.560584},
{"title":"홍천미알레펜션","address":"강원도 홍천군 서면 팔봉강변길 40-8(팔봉리 323-17)","phone":"010-2932-9800","lat":37.6940735,"lng":127.7060814},
{"title":"스카이쌍둥이펜션","address":"강원도 영월군 수주면 법흥1리 588","phone":"033-374-4270","lat":37.2880485,"lng":128.2684923},
{"title":"게스트하우스 향","address":"강원도 양양군 강현면 뒷나루 1길 5-1 (구 강현면 전진리 71-10)","phone":"010-3924-2973","lat":38.1277587,"lng":128.6233548},
{"title":"사천애펜션","address":"강원도 강릉시 사천면 사천진리 264-4(사천면 해안로 1052)","phone":"010-3744-4564","lat":37.8431431,"lng":128.8710362},
{"title":"봉포플라트폼","address":"강원도 고성군 토성면 광포길 31","phone":"010-2772-4020","lat":38.2459641,"lng":128.5674562},
{"title":"파인트리 펜션","address":"강원도 춘천시 남산면 창촌리 86-3","phone":"010-7122-1745","lat":37.7896646,"lng":127.6429694},
{"title":"리베르테펜션","address":"강원도 홍천군 서면 팔봉리 119-6","phone":"1039558082","lat":37.6923329,"lng":127.7127883},
{"title":"대관령800마을","address":"강원도 평창군 대관령면 횡계리 14-316","phone":"010-3939-1185","lat":37.6895809,"lng":128.7449639},
{"title":"코스테펜션","address":"강원도 강릉시 사천면 해안로 725-2","phone":"010-4772-5180","lat":37.8505354,"lng":128.8621947},
{"title":"평화의댐 수피아펜션","address":"강원도 화천군 비수구미길 1038","phone":"033-442-3946","lat":38.1524612,"lng":127.860315},
{"title":"서씨네민박","address":"강원도 속초시 조양동 1480-20","phone":"010-8964-1401","lat":38.1863109,"lng":128.6047439},
{"title":"형님네펜션","address":"강원도 속초시 조양동 1490-8","phone":"010-5003-6279","lat":38.1857271,"lng":128.6043829},
{"title":"남이섬쉼터펜션","address":"강원도 춘천시 남산면 백양리 238-1","phone":"010-6376-4472","lat":37.8005976,"lng":127.5762995},
{"title":"더그레이펜션","address":"강원도 강릉시 하남길 263번길 9-6","phone":"010-6788-1728","lat":37.8075321,"lng":128.8953238},
{"title":"아담하우스","address":"강원도 양양군 강현면 주청리 7-30번지","phone":"033-672-4333","lat":38.1179132,"lng":128.6297139},
{"title":"365행복펜션","address":"강원 정선군 북평면 장열리 264-3","phone":"033-562-1365","lat":37.4565353,"lng":128.6833984},
{"title":"강촌초코민트&해와달펜션","address":"강원도 춘천시 남산면 풀무1길 56","phone":"010-3113-5459","lat":37.7992974,"lng":127.6423132},
{"title":"설악뜰펜션","address":"강원도 양양군 강현면 상복리 467-2","phone":"033-673-5679","lat":38.1410783,"lng":128.5635045},
{"title":"여차울캠핑글램핑","address":"강원 홍천군 내면 여차동길 745-41","phone":"010-2915-4599","lat":37.8605476,"lng":128.2797397},
{"title":"굿모닝펜션","address":"강원도 속초시 대포동 575-2","phone":"010-6204-0054","lat":38.1858705,"lng":128.6054069},
{"title":"헬로피스","address":"강원도 양양군 현북면 하광정리 618-4","phone":"033-672-0021","lat":38.0230598,"lng":128.7233204},
{"title":"혜원펜션","address":"강원도 춘천시 남산면 산수리 산184","phone":"010-9498-5197","lat":37.6879096,"lng":127.6494829},
{"title":"속초 월드펜션","address":"강원도 속초시 새마을13길 16","phone":"010-4850-5953","lat":38.1862536,"lng":128.60449},
{"title":"니나랑펜션","address":"강원도 강릉시 강동면 안인진길 34-22","phone":"010-6799-8005","lat":37.7346639,"lng":128.9895413},
{"title":"양양 in9펜션","address":"강원도 양양군 현남면 인구길 28-29","phone":"010-2419-7132","lat":37.9690946,"lng":128.7617886},
{"title":"핑크하우스","address":"경기도 양평군 단월면 봉상리 666-6","phone":"010-9032-5211","lat":37.5122326,"lng":127.6427702},
{"title":"아일랜드펜션","address":"경기도 화성시 서신면 제부리 288-118","phone":"010-3519-3447","lat":37.1769029,"lng":126.622167},
{"title":"라비에벨","address":"경기도 화성시 서신면 해안길178번길 114-3(제부리 258-5)","phone":"010-4729-7567","lat":37.1732776,"lng":126.6191127},
{"title":"꿈의궁전","address":"경기도 가평군 상면 행현리 696-4","phone":"010-5258-3019","lat":37.7537033,"lng":127.3583889},
{"title":"제부비치타운","address":"경기도 화성시 서신면 제부리","phone":"011-9006-2500","lat":37.1710576,"lng":126.6224067},
{"title":"잔디뜰펜션","address":"경기도 화성시 서신면 제부리 8-3","phone":"010-3853-9006","lat":37.1735387,"lng":126.627159},
{"title":"에르모사펜션","address":"경기도 포천시 영북면 산정리 116-6","phone":"010-4276-2420","lat":38.0617595,"lng":127.3149939},
{"title":"루비노펜션","address":"경기도 가평군 가평읍 복장리 432","phone":"010-6379-7805","lat":37.7338439,"lng":127.5028244},
{"title":"제부일마레","address":"경기도 화성시 서신면 제부리 190-115","phone":"010-6290-0006","lat":37.1625294,"lng":126.6199398},
{"title":"고요한 하늘정원","address":"경기도 가평군 상면 행현리 607번지","phone":"010-4794-9929","lat":37.7490504,"lng":127.3582249},
{"title":"세모난나무","address":"경기도 용인시 처인구 포곡읍 영문리 14-1","phone":"010-6475-2808","lat":37.2775078,"lng":127.2132016},
{"title":"오브레펜션","address":"경기도 화성시 서신면 제부리 288-106","phone":"031-355-7831","lat":37.1753967,"lng":126.6208003},
{"title":"소리산황토밸리","address":"경기도 양평군 단월면 석산리 97번지","phone":"010-5261-9365","lat":37.6430438,"lng":127.6075247},
{"title":"해오름펜션","address":"경기도 광주시 도척면 도웅리 425번지","phone":"010-2302-5189","lat":37.3390973,"lng":127.3036178},
{"title":"여우별펜션","address":"경기도 가평군 상면 임초리 174-4번지","phone":"010-8905-4952","lat":37.7567551,"lng":127.3704217},
{"title":"가온펜션","address":"경기도 가평군 가펴읍 금대리 56-1","phone":"010-3389-4119","lat":37.7572905,"lng":127.5409893},
{"title":"알라딘펜션","address":"경기도 안산시 단원구 대부북동 1870-105","phone":"010-4352-1641","lat":37.2765112,"lng":126.5552363},
{"title":"나르샤의정원","address":"경기도 가평군 상면 임초리 129-1","phone":"01063825424--","lat":37.7568563,"lng":127.376228},
{"title":"채움펜션","address":"경기도 용인시 포곡읍 삼계리 547","phone":"010-8819-5609","lat":37.2777322,"lng":127.2329847},
{"title":"바오하우스","address":"경기도 양평군 양동면 금왕리 29","phone":"031-772-6554","lat":37.4927603,"lng":127.7421248},
{"title":"하이엔드빌리지","address":"경기도 포천시 영북면 산정호수로 999","phone":"031-532-1515","lat":38.0890759,"lng":127.2754661},
{"title":"돌체비타펜션","address":"경기도 포천시 일동면 기산리 2-15","phone":"010-8384-8180","lat":37.9453486,"lng":127.3280668},
{"title":"솔잎펜션","address":"경기도 화성시 서신면 제부리 10-2","phone":"010-2711-4992","lat":37.1710576,"lng":126.6224067},
{"title":"제이알랜드","address":"경기도 광주시 도척면 도웅리 424-1","phone":"010-5654-0071","lat":37.3390012,"lng":127.3032237},
{"title":"이루마펜션","address":"경기도 양평군 옥천면 용천리 155-19","phone":"010-8484-8203","lat":37.555427,"lng":127.5181436},
{"title":"시크 펜션","address":"경기도 가평군 하면 운악청계로 491번길 154-24","phone":"010-2491-9929","lat":37.8534935,"lng":127.3505437},
{"title":"카라반캠프","address":"경기도 화성시 서신면 해안길 226","phone":"010-3589-8031","lat":37.1616961,"lng":126.6194123},
{"title":"솔레펜션","address":"경기도 가평군 가평읍 하색리 778-9","phone":"010-8670-9894","lat":37.8148547,"lng":127.4671444},
{"title":"산비탈펜션","address":"경기도 포천시 영북면 산정리 528-3","phone":"010-9905-3991","lat":38.0703761,"lng":127.3049561},
{"title":"림펜션","address":"경기도 양평군 서종면 도장계곡길 27","phone":"010-6412-1721","lat":37.601934,"lng":127.3959121},
{"title":"판타루시아","address":"경기도 안산시 단원구 선감동 152","phone":"032-883-6900","lat":37.2177534,"lng":126.6319621},
{"title":"스톤힐펜션","address":"경기도 양평군 양평읍 양근리 산 13-6","phone":"010-2705-8512","lat":37.4996945,"lng":127.487664},
{"title":"가평아이리스펜션","address":"경기도 가평군 가평읍 하색리 770-1","phone":"010-9617-0107","lat":37.8142313,"lng":127.4705471},
{"title":"포천 아름다운펜션","address":"경기도 포천시 영북면 산정호수 426번지","phone":"031-534-1276","lat":38.0686138,"lng":127.3230194},
{"title":"여우야펜션","address":"경기도 안산시 단원구 대부북동 1678","phone":"010-8678-7849","lat":37.2607815,"lng":126.5600236},
{"title":"이오네스크 펜션","address":"경기도 가평군 상면 행현2리 661-3","phone":"010-2052-4012","lat":37.8049606,"lng":127.3570731},
{"title":"우노하우스","address":"경기도 양평군 청운면 신론리 184","phone":"010-4772-6683","lat":37.559226,"lng":127.7900961},
{"title":"해미르펜션","address":"경기도 남양주시 수동면 축령산로 272-7","phone":"010-3589-2787","lat":37.7506449,"lng":127.3078576},
{"title":"몽이랑펜션","address":"경기도 양평군 청운면 신론리 219-1","phone":"010-4584-9122","lat":37.5568055,"lng":127.776729},
{"title":"글램바오","address":"경기도 가평군 가평읍 금대리 302-1","phone":"010-2024-9748","lat":37.7723973,"lng":127.5361523},
{"title":"까사32펜션","address":"경기도 가평군 설악면 회곡리 468번지(유명로 2384)","phone":"010-2770-4432","lat":37.7115205,"lng":127.4448533},
{"title":"엠캠프","address":"서울시 중구 필동1가 30 매경미디어센터 8층 매경닷컴","phone":"010-4492-8840","lat":37.561031,"lng":126.992401},
{"title":"더리버리조트","address":"경기도 가평군 북한강변로 360-71 남이섬 이엘씨 리조트","phone":"010-3778-5852","lat":37.7599195,"lng":127.541157},
{"title":"캐시미어힐","address":"경기도 양평군 양평읍 백안리 17-32","phone":"070-8883-8347","lat":37.5102999,"lng":127.5278227},
{"title":"남양주남양펜션","address":"경기도 남양주시 수동면 외방리95-35(외방로 62번 안길 7-22)","phone":"010-5597-7777","lat":37.7314028,"lng":127.3235746},
{"title":"블루힐펜션(양평)","address":"경기도 양평군 양평읍 백안리 17-38","phone":"031-772-7702","lat":37.5111486,"lng":127.5264351},
{"title":"마당넓은집","address":"경기도 양평군 청운면 갈운3리 1437-3","phone":"010-3761-7348","lat":37.5561824,"lng":127.710673},
{"title":"가람휴펜션","address":"경기도 연천군 백학면 노곡리 879-2","phone":"010-3726-1435","lat":37.9909652,"lng":126.9137748},
{"title":"수동밸리펜션","address":"경기도 남양주시 수동면 외방리 600","phone":"010-8012-5115","lat":37.7323291,"lng":127.3002818},
{"title":"개울가펜션","address":"경기도 양평군 서종면 수능리 324","phone":"010-6368-4227","lat":37.5970718,"lng":127.3779584},
{"title":"푸른산마루 펜션","address":"경기도 포천시 이동면 연곡리 602-1","phone":"010-5276-9091","lat":37.9946977,"lng":127.3744299},
{"title":"소나기이야기펜션","address":"경기도 양평군 서종면 수능리 421","phone":"010-7226-4149","lat":37.601229,"lng":127.3722941},
{"title":"양평펜션가족","address":"경기도 양평군 서종면 도장리 23-2","phone":"010-3885-6308","lat":37.6011211,"lng":127.4073574},
{"title":"예그리나펜션","address":"경기도 양평군 용문면 연수리 703","phone":"010-9004-5548","lat":37.5125734,"lng":127.5431901},
{"title":"둥지펜션","address":"경기도 양평군 서종면 수능리 175-9","phone":"010-5210-3666","lat":37.5910557,"lng":127.3897385},
{"title":"피오레펜션","address":"경기도 양평군 서종면 문호리 2번지","phone":"010-6330-0155","lat":37.61673,"lng":127.3808485},
{"title":"더모스트펜션","address":"경기도 가평군 상면 수목원로 300-99","phone":"031-584-8749","lat":37.7645837,"lng":127.3650185},
{"title":"수록원","address":"경기도 가평군 북면 대촌들길 53-105","phone":"010-5479-7508","lat":37.9222771,"lng":127.4908532},
{"title":"놀이터가자","address":"경기도 가평군 북면 가화로 1168-32","phone":"010-7122-1311","lat":37.8960436,"lng":127.5369796},
{"title":"힐플라워","address":"경기도 남양주시 수동면 내방리 127-1","phone":"010-9099-3682","lat":37.7452284,"lng":127.2971183},
{"title":"플라워펜션","address":"경기도 양평군 단월면 석산로 1543-9","phone":"031-773-4447","lat":37.6093364,"lng":127.6248911},
{"title":"캠프통 아일랜드","address":"경기도 가평군 청평면 호반로 976","phone":"010-2911-3699","lat":37.7180546,"lng":127.4516942},
{"title":"뮤직게스트하우스","address":"경기도 용인시 처인구 포곡읍 포곡로 272번길 19-9 (삼계리 544-4)","phone":"010-3785-5609","lat":37.2771736,"lng":127.2321546},
{"title":"펜션121","address":"경기도 남양주시 조안면 삼봉리 121","phone":"010-8931-2311","lat":37.6011148,"lng":127.330987},
{"title":"스머프펜션","address":"경상남도 양산시 원동면 선리 225-4","phone":"010-3860-6577","lat":35.5183459,"lng":129.0047756},
{"title":"별바다펜션","address":"경남 거제시 일운면 망치리 9-40번지","phone":"055-682-3001","lat":34.8176013,"lng":128.6755073},
{"title":"바다향기","address":"거제시 남부면 저구리 623번지","phone":"010-2020-1197","lat":34.7153358,"lng":128.5871904},
{"title":"릴랙스펜션","address":"경남 밀양시 단장면 고례리 1408-3","phone":"010-3858-4235","lat":35.4968137,"lng":128.9267376},
{"title":"사랑해펜션-일마레","address":"경상남도 남해군 미조면 미조리 237번지","phone":"010-3358-3910","lat":34.7078383,"lng":128.0363644},
{"title":"남해설레임","address":"경남 남해군 남면 홍현리 1438번지","phone":"010-7310-9889","lat":34.7251267,"lng":127.8872832},
{"title":"노을펜션","address":"경남 남해군 남면 선구리 1123번지","phone":"010-6780-2624","lat":34.7398695,"lng":127.8576754},
{"title":"해변의왈츠","address":"경남 남해군 이동면 신전리 1000-5번지","phone":"010-9995-5698","lat":34.7707299,"lng":127.9532305},
{"title":"바람별펜션","address":"경남 남해군 남면 홍현리 1437번지","phone":"010-6769-5200","lat":34.7248942,"lng":127.8864384},
{"title":"폴인펜션","address":"경남 밀양시 단장면 고례리 1521-5번지","phone":"010-5488-9063","lat":35.4907916,"lng":128.9294535},
{"title":"첼로펜션","address":"경남 남해군 삼동면 물건리 260-20번지","phone":"010-3449-1441","lat":34.8013606,"lng":128.0449617},
{"title":"상상속의펜션","address":"경남 남해군 홍현리 196번지","phone":"0558649898--","lat":34.7419637,"lng":127.910839},
{"title":"은빛바다펜션","address":"경남 남해군 삼동면 물건리 772-3","phone":"010-6613-7703","lat":34.7809973,"lng":128.0484143},
{"title":"원일펜션","address":"경상남도 남해군 상주면 상주리 1290-1","phone":"055-862-6100","lat":34.7210364,"lng":127.9855867},
{"title":"얼음골까투리펜션","address":"경상남도 밀양시 산내면 삼양리 235번지","phone":"055-356-8887","lat":35.5808088,"lng":128.9783196},
{"title":"블루&화이트","address":"경상남도 남해군 서면 서상리 1112-2","phone":"010-4628-3925","lat":34.7915553,"lng":127.8370405},
{"title":"은빛아라펜션","address":"경남 남해군 상주면 상주리 금포마을 213-39","phone":"010-3801-2696","lat":34.7215615,"lng":128.0048093},
{"title":"남해에버그린","address":"경남 남해군 남면 선구리 175-2","phone":"010-9047-3587","lat":34.7284727,"lng":127.8723443},
{"title":"더비치펜션","address":"경상남도 거제시 장목면 관포리 산1번지","phone":"055-634-2700","lat":34.9975419,"lng":128.6922446},
{"title":"올라펜션","address":"경남 사천시 서포면 다평리 산 132-1","phone":"010-6349-5107","lat":34.9808696,"lng":127.9446986},
{"title":"르미에르","address":"경남 남해군 남면 선구리 168","phone":"010-5130-3358","lat":34.7291559,"lng":127.8704716},
{"title":"해뜨는마을","address":"경남 양산시 원동면 선리 395","phone":"010-4441-8327","lat":35.5075888,"lng":129.0007063},
{"title":"초콜렛펜션","address":"경남 남해군 남면 홍현리 1476","phone":"010-8138-2356","lat":34.726909,"lng":127.8826237},
{"title":"플로라펜션","address":"경남 거제시 일운면 망치리 366-3","phone":"010-8322-6679","lat":34.8125001,"lng":128.6646634},
{"title":"핑키마린펜션","address":"경남 남해군 삼동면 물건리 719번지","phone":"010-6487-2834","lat":34.7839393,"lng":128.049524},
{"title":"남해펜션타운","address":"경상남도 남해군 이동면 신전리 400-1","phone":"010-4587-6712","lat":34.7818637,"lng":127.9593146},
{"title":"빈스하우스","address":"경남 남해군 이동면 용소리 1589번지","phone":"010-3863-0912","lat":34.78205,"lng":127.9276127},
{"title":"크란츠러펜션","address":"경남 남해군 삼동면 물건리 산84-20","phone":"010-4660-8174","lat":34.7963291,"lng":128.0432356},
{"title":"산토리니펜션","address":"경상남도 남해군 남면 선구리 1391번지","phone":"010-8466-3979","lat":34.7313775,"lng":127.8718426},
{"title":"하늘빛풍경","address":"경상남도 남해군 남면 홍현리 1458번지","phone":"055-862-9113","lat":34.726559,"lng":127.8842545},
{"title":"상상속의집","address":"경상남도 거제시 일운면 소동리 2-2","phone":"055-682-5252","lat":34.847531,"lng":128.7098409},
{"title":"까사마르펜션","address":"경남 남해군 남면 홍현리 1489-1","phone":"010-2236-8355","lat":34.7260779,"lng":127.8845423},
{"title":"인갤러리펜션","address":"경상남도 남해군 서면 작장리 210번지","phone":"055-864-8989","lat":34.8220285,"lng":127.8223146},
{"title":"까사아지오","address":"경남 밀양시 단장면 고례리 1468번지","phone":"010-7758-2570","lat":35.491035,"lng":128.9261709},
{"title":"소나무향기펜션","address":"경상남도 거제시 남부면 갈곶리 31-7","phone":"010-3881-7979","lat":34.7382145,"lng":128.6765401},
{"title":"캐빈하우스","address":"경남 밀양시 단장면 구천리 676-1","phone":"010-5104-2705","lat":35.5223892,"lng":128.927585},
{"title":"파도소리펜션","address":"경상남도 거제시 남부면 갈곶리 37번지","phone":"055-632-8956","lat":34.7375883,"lng":128.6759956},
{"title":"블루그라드","address":"경남 남해군 남면 선구리 162-1","phone":"010-3789-4246","lat":34.7292571,"lng":127.8689744},
{"title":"인누드펜션","address":"경남 남해군 남면 선구리 빛담촌길 17-6번지","phone":"1056751357","lat":34.7313775,"lng":127.8718426},
{"title":"구조라타운","address":"경남 거제시 일운면 구조라리 443번지","phone":"055-681-0023","lat":34.8075827,"lng":128.6929236},
{"title":"바다위통나무펜션","address":"경남 통영시 산양읍 풍화리 1021-6","phone":"010-8675-1026","lat":34.82558,"lng":128.3502858},
{"title":"배내골미루펜션","address":"경상북도 양산시 원동면 선리 209번지","phone":"010-2846-6052","lat":35.517706,"lng":129.0036861},
{"title":"양지펜션","address":"경상남도 통영시 산양읍 신전리 1429-1번지","phone":"010-7144-2590","lat":34.8031069,"lng":128.4029925},
{"title":"남해독일마을등대게스트하우스","address":"경상남도 남해군 삼동면 물건리 182-1","phone":"1054752303","lat":34.79861,"lng":128.0454367},
{"title":"젠하우스","address":"경남 남해군 서면 직장리 135번지","phone":"010-5377-1646","lat":34.8181757,"lng":127.8274583},
{"title":"남해갯마을하우스","address":"경상남도 남해군 이동면 석평리 823-3","phone":"055-864-5050","lat":34.8106701,"lng":127.9437075},
{"title":"코츠월드펜션","address":"경상남도 남해군 서면 작장리 213-5","phone":"055-863-0506","lat":34.8295288,"lng":127.826852},
{"title":"지리산방흙집풍경","address":"경상남도 하동군 악양면 악양서로755","phone":"010-9980-3555","lat":35.1761592,"lng":127.7069172},
{"title":"마마스펜션","address":"경남 하동군 화개면 용강리 385-3","phone":"1036446769","lat":34.9667296,"lng":127.6058076},
{"title":"클랑펜션","address":"경상남도 남해군 삼동면 독일로 6","phone":"010-3720-2716","lat":34.7989141,"lng":128.0408595},
{"title":"아트인더밸리","address":"경상남도 양산시 원동면 장선2길 53","phone":"010-9999-5353","lat":35.3646853,"lng":128.9187874},
{"title":"남해와우펜션","address":"경남 남해군 남면 홍현리 1458-1","phone":"010-2674-3200","lat":34.726559,"lng":127.8842545},
{"title":"리베하우스","address":"경남 남해군 삼동면 물건리 235-7","phone":"010-3855-2551","lat":34.7978448,"lng":128.0423643},
{"title":"소올펜션","address":"경상남도 남해군 남면 석교리 431","phone":"010-6253-7303","lat":34.7558718,"lng":127.9012119},
{"title":"용추솔마루펜션","address":"경상남도 함양군 안의면 매바위길 10","phone":"055-962-5588","lat":35.6746195,"lng":127.7845833},
{"title":"강나루하얀집","address":"경상남도 밀양시 단장면 고례리 1408-79","phone":"055-353-5879","lat":35.4955211,"lng":128.9274535},
{"title":"블루션펜션","address":"경남 남해군 삼동면 물건리 255-1","phone":"010-2026-6449","lat":34.7985655,"lng":128.0436936},
{"title":"우포고요펜션","address":"경남 창녕군 이방면 장재길 27-24 (안리 1375-1)","phone":"055-532-1425","lat":35.5649131,"lng":128.4118484},
{"title":"통영1박2일커플펜션","address":"경상남도 통영시 산양읍 미남리 80번지","phone":"010-5365-8778","lat":34.7710842,"lng":128.4247651},
{"title":"남해 벨비앙펜션","address":"경상남도 남해군 남면 선구리 496-7","phone":"1032101306","lat":34.7289844,"lng":127.86862},
{"title":"펜션송","address":"경상남도 양산시 원동면 선리 153-7","phone":"1043175388","lat":35.5154161,"lng":129.0016854},
{"title":"거제더비치펜션","address":"경상남도 거제시 장목면 관포리 581-7","phone":"055-634-4900","lat":34.9974704,"lng":128.6929265},
{"title":"비채펜션","address":"경상남도 밀양시 단장면 고례리 1426","phone":"010-7472-8475","lat":35.496102,"lng":128.9255148},
{"title":"웨이크밸리","address":"경상남도 밀양시 초동면 검암리 812-5","phone":"010-8888-7293","lat":35.4011337,"lng":128.6859938},
{"title":"엘니도리조트","address":"경남 남해군 남면 선구리 1339-14","phone":"010-3815-6140","lat":34.7387192,"lng":127.8546556},
{"title":"빈센트 펜션","address":"경상남도 남해군 남면 홍현리 1412-2","phone":"010-9622-0990","lat":34.7237168,"lng":127.8892887},
{"title":"그리드1398","address":"경상남도 남해군 남면 선구리 1398","phone":"010 -2689-7811","lat":34.7374314,"lng":127.86465},
{"title":"달빛2그램","address":"경남 남해군 남면 선구리 빛담촌길1380번지","phone":"010-2929-2490","lat":34.7299068,"lng":127.8688815},
{"title":"카루소펜션","address":"경상남도 남해군 남면 덕월리 778 카루소펜션","phone":"010-3191-4518","lat":34.7875565,"lng":127.8535723},
{"title":"공룡펜션","address":"경남 고성군 하이면 자란만로 719-4(월흥리 953-7)","phone":"010-8730-7979","lat":34.9089265,"lng":128.1396684},
{"title":"바다그리다","address":"경남 남해군 삼동면 동부대로 1125-6(삼동면 물건리 250-3번지)","phone":"010-5573-2628","lat":34.7989849,"lng":128.0433058},
{"title":"햇살한스푼","address":"경남 남해군 남면 평산리 2011-4","phone":"010-4162-9001","lat":34.7613044,"lng":127.8571528},
{"title":"퀸즈파크펜션","address":"울산광역시 울주군 상북면 이천리 520-1번지","phone":"010-2642-0195","lat":35.5393655,"lng":129.0125938},
{"title":"까미노펜션","address":"경남 남해군 남면 선구리 692","phone":"010-9900-9610","lat":34.7367451,"lng":127.8594138},
{"title":"남해바다풍경","address":"경남 남해군 남면 선구리 307","phone":"010-5341-1678","lat":34.7374314,"lng":127.86465},
{"title":"비치플레이스","address":"경남 남해군 상주면 상주리 1354","phone":"010-9333-1513","lat":34.719693,"lng":127.9838466},
{"title":"구름열매펜션","address":"경상남도 남해군 남면 선구리 빛담촌길","phone":"010-6751-0000","lat":34.7299068,"lng":127.8688815},
{"title":"남해가는길펜션","address":"경남 남해군 남면 석교리 83번지","phone":"010-3917-0869","lat":34.7638458,"lng":127.9025449},
{"title":"사랑해펜션-아모르","address":"경상남도 남해군 미조면 미조리 237번지","phone":"010-3358-3910","lat":34.7078383,"lng":128.0363644},
{"title":"바다랑펜션","address":"경상남도 통영시 용남면 원평리 1140번지","phone":"010-3576-7071","lat":34.9100908,"lng":128.4440635},
{"title":"폴인펜션(카바나)","address":"경남 밀양시 단장면 고례리 1521-5번지","phone":"010-5488-9063","lat":35.4907916,"lng":128.9294535},
{"title":"모리오션","address":"경남 남해군 남면 평산리 2014-1","phone":"010-4900-0120","lat":34.7601037,"lng":127.8423445},
{"title":"몰리노_시선","address":"경상남도 남해군 남면 선구리 164-1","phone":"010-8532-6024","lat":34.7295898,"lng":127.8699042},
{"title":"청산별곡 캠핑&펜션","address":"경남 함양군 마천면 철선로 112","phone":"010-3575-4422","lat":35.3969046,"lng":127.6630513},
{"title":"창녕 우포5마일","address":"경남 창녕군 이방면 초곡리 1330-1","phone":"010-2203-3560","lat":35.5721025,"lng":128.408924},
{"title":"나무펜션","address":"경상남도 밀양시 단장면 구천리 555번지","phone":"010-3131-8560","lat":35.5248698,"lng":128.9313204},
{"title":"산토리니앤","address":"경남 남해군 남면 선구리 158-1","phone":"010-5143-2988","lat":34.7290336,"lng":127.8699302},
{"title":"아모르펜션","address":"경상남도 밀양시 단장면 고례리 915번지","phone":"055-354-2114","lat":35.4981081,"lng":128.9254342},
{"title":"밀라노펜션","address":"경상남도 밀양시 단장면 사연리 829-6","phone":"010-9012-8868","lat":35.5126374,"lng":128.8848969},
{"title":"자연뜰펜션","address":"경상남도 거제시 거제면 소량리 11-2","phone":"010-5554-8981","lat":34.8335117,"lng":128.5559136},
{"title":"고래의꿈 펜션","address":"경상남도 남해군 남면 선구리 1386","phone":"010-3301-8643","lat":34.7374314,"lng":127.86465},
{"title":"올리브펜션","address":"경남 남해군 남면 선구리 308-1","phone":"010-7712-2153","lat":34.7333053,"lng":127.8636292},
{"title":"하와유펜션","address":"경남 거제시 장목면 옥포대첩로 1079-9","phone":"010-2587-2978","lat":34.959399,"lng":128.7035735},
{"title":"남해마로니에펜션","address":"경상남도 남해군 남면 선구리 836번지","phone":"010-8518-9201","lat":34.7385164,"lng":127.8584716},
{"title":"소울메이트펜션","address":"경남 남해군 남면 선구리 471-4","phone":"010-5528-1767","lat":34.7307272,"lng":127.8670644},
{"title":"블루웨일 글래핑","address":"경남 고성군 삼산면 두포 5길 113-139번지","phone":"01040904537--","lat":34.9234082,"lng":128.3015009},
{"title":"바람의향기","address":"경상남도 밀양시 단장면 구천리 250-1","phone":"055-352-8227","lat":35.5314133,"lng":128.9538471},
{"title":"월포펜션","address":"경남 남해군 남면 석교리월포 47-12","phone":"010-7572-7792","lat":34.7570818,"lng":127.894358},
{"title":"히든비치리조트","address":"경남 창원시 마산합포구 진전면 회진로 742-25(시락리823번지)","phone":"01098487899--","lat":35.0922765,"lng":128.4507606},
{"title":"화이트오펜션","address":"경상남도 거제시 장목면 외포리 582","phone":"055-637-8885","lat":34.9557594,"lng":128.7155399},
{"title":"밀양스위스펜션","address":"경남 밀양시 단장면 표충로 1131-7(구주소: 경남 밀양시 단장면 구천리 509-7번지)","phone":"010-3523-5207","lat":35.5287665,"lng":128.9359479},
{"title":"참조은펜션","address":"경상남도 산청군 신안면 외송리 1052","phone":"010-9459-4603","lat":35.3708285,"lng":127.9265098},
{"title":"블루인블루펜션","address":"경상남도 거제시 동부면 학동리 123-5","phone":"055-635-1581","lat":34.7789558,"lng":128.6539438},
{"title":"캐비넷펜션","address":"경남 남해군 남면 홍현리 1476","phone":"010-8252-4588","lat":34.726909,"lng":127.8826237},
{"title":"바다내음펜션","address":"경상남도 거제시 사등면 창호리 1095","phone":"010-5470-5532","lat":34.9711421,"lng":128.5176559},
{"title":"13월의오후 펜션","address":"경상남도 남해군 남면 선구리 1379","phone":"1046665465","lat":34.7302611,"lng":127.8679158},
{"title":"프리그펜션","address":"경상남도 남해군 설천면 설천로 541-72","phone":"010-7140-9616","lat":34.9114786,"lng":127.9142476},
{"title":"밤베르크펜션","address":"경상남도 남해군 삼동면 물건리 250-3번지","phone":"010-4009-2816","lat":34.7753694,"lng":128.0395964},
{"title":"블루마레펜션","address":"경상남도 남해군 선구리 66번지","phone":"010-8885-7027","lat":34.7273034,"lng":127.8774912},
{"title":"스위티펜션","address":"경상남도 밀양시 단장면 고례2길 64","phone":"010-6610-1335","lat":35.4874317,"lng":128.9314051},
{"title":"좋은데이펜션","address":"경상남도 통영시 용남면 화삼리 84-1","phone":"010-2617-8997","lat":34.8568917,"lng":128.4458173},
{"title":"풍차마을 튜울립펜션","address":"경상남도 통영시 용남면 장평리 703-4번지","phone":"010-2271-0489","lat":34.8807507,"lng":128.4669056},
{"title":"썸펜션","address":"경상남도 통영시 용남면 장평리 717-9","phone":"055-642-3772","lat":34.8789522,"lng":128.4662238},
{"title":"하루해한옥펜션","address":"경상남도 하동군 악양면 악양서로 669-16","phone":"010-8539-2812","lat":35.1891483,"lng":127.7171003},
{"title":"더바다앤펜션","address":"경상남도 남해군 남면 선구리 232번지","phone":"010-4551-2141","lat":34.7374314,"lng":127.86465},
{"title":"통영타워펜션","address":"경상남도 통영시 용남면 장평리 96-1","phone":"010-4569-3707","lat":34.8895812,"lng":128.472591},
{"title":"블루웨일 빌리지","address":"경상남도 고성군 삼산면 두포5길 113-109","phone":"01040904537--","lat":34.9246023,"lng":128.3001885},
{"title":"M129","address":"경상남도 남해군 남면 남면로 1739번길 8","phone":"010-2209-5454","lat":34.7662729,"lng":127.8471797},
{"title":"오션클럽","address":"경상남도 남해군 이동면 남서대로 397-22","phone":"010-8687-3996","lat":34.7743467,"lng":127.92164},
{"title":"힐링뷰펜션","address":"경상남도 남해군 남면 선구리 1396","phone":"010-4875-4113","lat":34.7374314,"lng":127.86465},
{"title":"투민펜션","address":"경상남도 남해군 서면 정포리 산96","phone":"010-6767-8754","lat":34.8872348,"lng":127.8306892},
{"title":"투민카라반","address":"경상남도 남해군 서면 정포리 산96","phone":"010-6767-8754","lat":34.8872348,"lng":127.8306892},
{"title":"거제이아뷰풀빌라","address":"경상남도 거제시 일운면 구조라리 499-3","phone":"010-9187-2389","lat":34.8090071,"lng":128.6918022},
{"title":"몽마르뜨펜션","address":"경상남도 남해군 남면 빛담촌길 17-25","phone":"010-5531-7884","lat":34.7305831,"lng":127.8697858},
{"title":"남해펜션","address":"경상남도 남해군 남면 남면로 920","phone":"010-5293-1801","lat":34.7282286,"lng":127.8759688},
{"title":"바다스케치","address":"경북 영덕군 병곡면 병곡리 123번지","phone":"011-9761-8040","lat":36.6027527,"lng":129.4106858},
{"title":"마리나펜션","address":"경북 울진군 후포면 후포리 626-34","phone":"010-7121-6132","lat":36.6792031,"lng":129.449265},
{"title":"아드리아","address":"경북 경주시 천군동 408번지","phone":"010-8338-5880","lat":35.8331444,"lng":129.2771112},
{"title":"오르세펜션","address":"경상북도 경주시 천북면 물천리 680번지","phone":"1020939903","lat":35.8712554,"lng":129.2819226},
{"title":"풍차펜션","address":"경북 경주시 하동 124-3번지","phone":"010-9879-6469","lat":35.8008997,"lng":129.3146591},
{"title":"아트인 올리브하우스","address":"경북 경주시 하동 254-1번지","phone":"010-3510-2709","lat":35.8066864,"lng":129.3054275},
{"title":"스토리펜션","address":"경북 경주시 천군동 862번지","phone":"010-4444-5248","lat":35.8192764,"lng":129.2874425},
{"title":"첫발자욱펜션","address":"경북 포항시 북구 청하면 용두리 431-25","phone":"010-7116-7600","lat":36.2005358,"lng":129.37064},
{"title":"아트인 하늘호수펜션","address":"경북 경주시 하동 115-3","phone":"010-5448-7070","lat":35.8008174,"lng":129.3155074},
{"title":"엉클톰스캐빈","address":"경북 경주시 하동 748-10번지","phone":"010-4589-9459","lat":35.7950981,"lng":129.3096319},
{"title":"오아시스펜션","address":"경북 경주시 구정동 17번지","phone":"010-2001-7707","lat":35.7908712,"lng":129.3057318},
{"title":"보문호수펜션","address":"경주시 천군동 449번지","phone":"010-8485-5353","lat":35.8331153,"lng":129.2780726},
{"title":"아델리아 나동","address":"경북 경주시 하동 254-1번지","phone":"010-3741-7728","lat":35.8066864,"lng":129.3054275},
{"title":"향나무펜션","address":"포항시 북구 청하면 용두리 300번지","phone":"010-4640-3765","lat":36.1988008,"lng":129.3696324},
{"title":"돌고래펜션","address":"경북 포항시 북구 송라면 화진리 132번지","phone":"010-2799-1689","lat":36.2399839,"lng":129.3804485},
{"title":"207mile","address":"경상북도 울진군 기성면 망양리","phone":"010-3736-5214","lat":36.8618419,"lng":129.4129031},
{"title":"뉴캐슬","address":"경북 경주시 천군동 1444-3번지","phone":"010-8660-6664","lat":35.8321414,"lng":129.2761677},
{"title":"노비오스","address":"경북 경주시 진현동 449번지","phone":"010-4595-4623","lat":35.782063,"lng":129.3302463},
{"title":"프린세스펜션","address":"경북 경주시 천북면 물천리 241-2","phone":"010-2850-8136","lat":35.8751892,"lng":129.2934626},
{"title":"경주설레임펜션","address":"경북 경주시 하동 124-6","phone":"1059049899","lat":35.8008666,"lng":129.3148788},
{"title":"우진그린펜션","address":"경북 경주시 천북면 툰천리 240번지","phone":"010-7243-7779","lat":35.8738211,"lng":129.2846879},
{"title":"또다른세상펜션","address":"경북 경주시 천북면 물천리 241-5","phone":"010-8507-8183","lat":35.8748247,"lng":129.292913},
{"title":"벨루스로즈","address":"경북 경주시 북군동 515-6번지","phone":"070-4175-8861","lat":35.8587455,"lng":129.2593814},
{"title":"다정다감펜션","address":"경상북도 경주시 천북면 물천리 241-1","phone":"010-6282-4631","lat":35.8746711,"lng":129.2935317},
{"title":"폴라리스펜션","address":"경북 경주시 하동 654번지","phone":"010-5667-7450","lat":35.7953237,"lng":129.315304},
{"title":"피렌체펜션","address":"경주시 천군동 861-7","phone":"010-5656-6406","lat":35.8183234,"lng":129.2874758},
{"title":"해뜨는집","address":"경북 울진군 후포면 금음리 57-2","phone":"054-788-1717","lat":36.6710404,"lng":129.4362732},
{"title":"자연향기펜션","address":"경상북도 경주시 황용동 25-1","phone":"010-6304-2892","lat":35.826559,"lng":129.3691157},
{"title":"다람쥐와도토리","address":"경북 경주시 하동 83-11","phone":"010-3375-8311","lat":35.7958318,"lng":129.3177086},
{"title":"아델리아 가동","address":"경북 경주시 하동 253-1","phone":"010-9474-7711","lat":35.8064163,"lng":129.3053954},
{"title":"지중해펜션","address":"경북 경주시 천북면 물천리 871번지","phone":"010-4431-7410","lat":35.8742073,"lng":129.2733351},
{"title":"노란별펜션","address":"경북 경주시 천북면 물천리 241-21","phone":"010-8754-9099","lat":35.8754375,"lng":129.2938332},
{"title":"아트인티아라","address":"경상남도 경주시 북군동 488-5번지","phone":"010-2569-5176","lat":35.8592276,"lng":129.2591277},
{"title":"라끄베르펜션","address":"경북 경주시 하동 502-3","phone":"010-2870-2202","lat":35.8035574,"lng":129.3099655},
{"title":"비바체펜션","address":"경북 경주시 감포읍 팔조리 125-8번지","phone":"010-2477-9560","lat":35.7849387,"lng":129.4743867},
{"title":"한아름펜션","address":"경북 경주시 천북면 1072-3","phone":"010-5324-8600","lat":35.8953044,"lng":129.2710572},
{"title":"로하스펜션","address":"경북 경주시 하동 743번지","phone":"054-777-7897","lat":35.7961192,"lng":129.3111289},
{"title":"더플레이스","address":"경북 경주시 천북면 물천2리 910-3번지","phone":"010-7418-3253","lat":35.8953044,"lng":129.2710572},
{"title":"경주초콜렛펜션","address":"경북 경주시 하동 297번지","phone":"054-743-3619","lat":35.8090819,"lng":129.3062578},
{"title":"엘마르펜션","address":"경북 포항시 남구 구룡포읍 삼정1리 503-14번지","phone":"010-4818-5500","lat":35.9853059,"lng":129.547069},
{"title":"스텔라","address":"경북 경주시 북군동 515-6","phone":"054-771-1885","lat":35.8587455,"lng":129.2593814},
{"title":"솜마리조트","address":"경북 경주시 마동 985번지","phone":"010-4383-1400","lat":35.7879724,"lng":129.3070948},
{"title":"쌤펜션","address":"경북 경주시 북군동 435","phone":"054-741-1103","lat":35.8634273,"lng":129.258284},
{"title":"라붐펜션","address":"경북 경주시 양남면 수렴리 120-4","phone":"1030239898","lat":35.6686604,"lng":129.4644079},
{"title":"햇살가득펜션","address":"경북 경주시 하동 751-13","phone":"010-7377-3080","lat":35.7942502,"lng":129.310191},
{"title":"하얀고래펜션","address":"경북 포항시 북구 청하면 방어리 8-4","phone":"054-249-1118","lat":36.2170145,"lng":129.3847893},
{"title":"자연펜션","address":"경상북도 상주시 화북면 용유리 408번지","phone":"010-9404-1994","lat":36.5648672,"lng":127.9215461},
{"title":"경주KB펜션","address":"경북 경주시 보문동 531-1","phone":"010-5438-7236","lat":35.8323893,"lng":129.2550247},
{"title":"풀하우스펜션","address":"경북 경주시 북군동 441번지","phone":"010-3802-4012","lat":35.8622391,"lng":129.258924},
{"title":"경주호수펜션과글램핑","address":"경상북도 경주시 천군동 862-14","phone":"010-5045-9639","lat":35.8192764,"lng":129.2874425},
{"title":"세븐하프펜션","address":"경북 경주시 천북면 물천리 1431-13","phone":"010-3086-9987","lat":35.8768005,"lng":129.2743333},
{"title":"펜션600","address":"경북 경주시 동방동 600","phone":"1062481565","lat":35.8153327,"lng":129.2582251},
{"title":"숲속정원","address":"경북 경주시 양남면 신대리 388-2","phone":"010-4330-9907","lat":35.6883712,"lng":129.3978347},
{"title":"메리골드펜션","address":"경북 경주시 하동 836-30","phone":"010-7235-9877","lat":35.794687,"lng":129.3094803},
{"title":"파라다이스펜션","address":"경상북도 경주시 천북면 물천리 879-3번지","phone":"054-771-4747","lat":35.8739449,"lng":129.2720773},
{"title":"바다목장펜션","address":"경상북도 울진군 평해읍 거일리 63번지","phone":"010-5443-5446","lat":36.7115672,"lng":129.4718654},
{"title":"다오래펜션","address":"경상북도 포항시 북구 송라면 방석2리 13-1","phone":"010-8540-6210","lat":36.23511794,"lng":129.3836904},
{"title":"유로빌펜션","address":"경북 경주시 북군동 509-10번지","phone":"010-3848-1458","lat":35.8579649,"lng":129.2574139},
{"title":"몽블랑펜션","address":"경상북도 경주시 북군동 444-5번지","phone":"010-2877-4890","lat":35.8633145,"lng":129.257009},
{"title":"로드31펜션","address":"경상북도 경주시 양남면 양남리 90-8","phone":"010-3796-3133","lat":35.6778061,"lng":129.4604091},
{"title":"해밀터펜션","address":"경상북도 경주시 북군동 508번지","phone":"010-2833-4385","lat":35.8578927,"lng":129.2573352},
{"title":"올리비아펜션","address":"경북 경주시 마동 259-1번지","phone":"010-5711-0087","lat":35.7893281,"lng":129.3173943},
{"title":"스위스로젠","address":"경상북도 경주시 신평동 242-19","phone":"010-6667-3848","lat":35.8404157,"lng":129.2926366},
{"title":"소래당펜션","address":"경북 경주시 북군동 314번지","phone":"054-741-7288","lat":35.8548225,"lng":129.2631388},
{"title":"솜마리조트","address":"경북 경주시 마동 985번지","phone":"010-4383-1400","lat":35.7879724,"lng":129.3070948},
{"title":"비하우스펜션","address":"경북 경주시 하동 115번지","phone":"010-7461-0555","lat":35.800771,"lng":129.3154669},
{"title":"시크릿펜션","address":"경상북도 경주시 천북면 물천리 867번지","phone":"010-2038-7416","lat":35.8742446,"lng":129.272452},
{"title":"송학펜션","address":"경상북도 경주시 마동 295-4","phone":"010-3521-6361","lat":35.7907056,"lng":129.3151383},
{"title":"영덕바다이야기펜션","address":"경북 영덕군 영해면 대진리 산 30번지","phone":"010-3819-0736","lat":36.556289,"lng":129.434764},
{"title":"해피데이펜션","address":"경주시 하동 256-2번지","phone":"010-6213-3955","lat":35.8071911,"lng":129.30601},
{"title":"블루힐 펜션","address":"경상북도 경주시 천북면 물천리 145-1","phone":"054-777-2777","lat":35.8696972,"lng":129.2899175},
{"title":"산포리펜션","address":"경북 울진군 근남면 산포리 17-10","phone":"010-7585-2903","lat":36.9541461,"lng":129.410629},
{"title":"오르토펜션","address":"경북 경주시 양남면 수렴리 249번지","phone":"010-7433-2653","lat":35.667993,"lng":129.454556},
{"title":"해파랑펜션","address":"경북 경주시 감포읍 오류리 626-2","phone":"010-2300-5999","lat":35.8099922,"lng":129.5079008},
{"title":"세남자이야기","address":"경북 경주시 천북면 물천리 748-1","phone":"1073657515","lat":35.8763856,"lng":129.281817},
{"title":"추억만들기","address":"경상북도 문경시 농암면 내서리 330-5","phone":"010-7488-5618","lat":36.551795,"lng":127.9581083},
{"title":"월포리조트","address":"경상북도 포항시 북구 청하면 월포리 295-1번지","phone":"010-4559-6454","lat":36.2018368,"lng":129.3697999},
{"title":"알프스펜션","address":"경상북도 경주시 양북면 죽전리 149번지","phone":"054-744-0101","lat":35.7497535,"lng":129.4095332},
{"title":"마리안느펜션","address":"경북 경주시 하동 252번지","phone":"054-771-6966","lat":35.8064221,"lng":129.3060262},
{"title":"파비앙펜션","address":"경상북도 경주시 마동 1082-16","phone":"010-5131-2001","lat":35.7883011,"lng":129.3071112},
{"title":"비버리힐펜션","address":"경북 경주시 하동 656-9","phone":"010-2514-7887","lat":35.7954166,"lng":129.3172714},
{"title":"은하수펜션","address":"경북 경주시 보문동 543번지","phone":"054-749-1059","lat":35.8319735,"lng":129.2532429},
{"title":"퍼시픽펜션","address":"경상북도 경주시 천북면 물천리 679","phone":"010-3849-8848","lat":35.8703542,"lng":129.282083},
{"title":"샤르망펜션","address":"경북 경주시 동방동 594번지","phone":"010-9177-0878","lat":35.8147932,"lng":129.259052},
{"title":"가득한정원","address":"경북 경주시 하동 619번지","phone":"010-8593-7677","lat":35.7979057,"lng":129.315642},
{"title":"띠아모","address":"경북 경주시 하동 분접안길 14-24","phone":"054-746-6428","lat":35.8063415,"lng":129.30633},
{"title":"월드펜션","address":"경상북도 경주시 천군동 198-3","phone":"010-2521-6143","lat":35.8333665,"lng":129.2830903},
{"title":"힐마레펜션","address":"경상북도 경주시 하동 656-17","phone":"010-8251-8895","lat":35.7952653,"lng":129.3162744},
{"title":"경주애펜션","address":"경상북도 경주시 하동 72-1","phone":"010-8687-2563","lat":35.7979599,"lng":129.3176961},
{"title":"별빛여정펜션","address":"경상북도 경주시 북군동 285-2","phone":"054-742-7312","lat":35.8561698,"lng":129.2629764},
{"title":"로젤리아","address":"경북 경주시 하동 41-2","phone":"054-741-7743","lat":35.7950736,"lng":129.31806},
{"title":"프라하펜션","address":"경상북도 경주시 하동 836-23","phone":"010-6660-6966","lat":35.7944576,"lng":129.3095274},
{"title":"엠엔케이펜션","address":"경북 경주시 물천리 727-11","phone":"010-5568-8100","lat":35.8765375,"lng":129.2810133},
{"title":"두송녹색농촌체험마을","address":"경상북도 경주시 양북면 송전리 94번지","phone":"010-8594-3966","lat":35.7660463,"lng":129.4273557},
{"title":"비치캐슬펜션","address":"경상북도 경주시 감포읍 오류리 278-13","phone":"010-3578-9265","lat":35.8217704,"lng":129.5075514},
{"title":"자연주의펜션","address":"경상북도 경주시 마동 507","phone":"010-3585-1696","lat":35.7823873,"lng":129.3160886},
{"title":"아라누리펜션","address":"경북 울진군 기성면 망양로123","phone":"010-9289-0863","lat":36.8405138,"lng":129.4339218},
{"title":"다섯번째계절 펜션","address":"경상북도 경주시 동방동 40-1","phone":"010-6875-0922","lat":35.8057408,"lng":129.26549},
{"title":"화진별장펜션","address":"경북 포항시 송라면 화진리 386-1","phone":"010-6201-0300","lat":36.240978,"lng":129.3749603},
{"title":"달빛추억펜션","address":"경북 청송군 부동면 공원길 29번지","phone":"010-2644-6111","lat":36.3854119,"lng":129.1304293},
{"title":"다향펜션","address":"경상북도 경주시 천북면 목실길6 (물천리 939-3)","phone":"010-2711-6540","lat":35.8729031,"lng":129.2726975},
{"title":"경주룸237","address":"경북 경주시 용강동 237","phone":"010-6380-8692","lat":35.861828,"lng":129.2281922},
{"title":"아테네 펜션","address":"경상북도 경주시 북군동 362-1번지","phone":"054-745-0020","lat":35.8579712,"lng":129.2624813},
{"title":"뉴캐슬쉐이리","address":"경상북도 경주시 하동 836-11","phone":"010-9206-8819","lat":35.7944778,"lng":129.3092434},
{"title":"칠불암한옥펜션","address":"경상북도 경주시 칠불암길 77-8","phone":"054-741-2828","lat":35.7918952,"lng":129.2441068},
{"title":"설레임스토리펜션","address":"경상북도 경주시 진현동 528","phone":"010-8302-0023","lat":35.782081,"lng":129.3279659},
{"title":"세비앙펜션","address":"경북 포항시 북구 송라면 방석리 14-9","phone":"010 2478 4158","lat":36.2344638,"lng":129.3835107},
{"title":"모노폴리 펜션","address":"경상북도 경주시 보문로 126-134 (경주시 하동 47-2)","phone":"010-4422-8553","lat":35.7946908,"lng":129.3167195},
{"title":"기와집펜션","address":"경상북도 경주시 진현동 611-129","phone":"010-2318-6181","lat":35.7832661,"lng":129.3278905},
{"title":"경주가이드펜션","address":"경상북도 경주시 북군4길 32","phone":"010-8365-3130","lat":35.8581366,"lng":129.2574553},
{"title":"take3펜션","address":"경상북도 경주시 감포읍 오류리 278-5","phone":"010-9364-3330","lat":35.8209248,"lng":129.5080755},
{"title":"아띠펜션","address":"경상북도 경주시 시동로 86-49","phone":"010-4613-6907","lat":35.7742523,"lng":129.2877161},
{"title":"경주핀란디아펜션","address":"경상북도 경주시 북군4길 28","phone":"010-2098-6136","lat":35.8583266,"lng":129.2575558},
{"title":"경주호수펜션과글램핑","address":"경상북도 경주시 천군동 862-14","phone":"010-5045-9639","lat":35.8192764,"lng":129.2874425},
{"title":"더프렌즈풀빌라","address":"경상북도 포항시 북구 청하면 소동리 723번지","phone":"010-8562-9537","lat":36.166655,"lng":129.3468941},
{"title":"에필로그펜션","address":"경상북도 경주시 북군동 509-12","phone":"010-4569-8973","lat":35.85799,"lng":129.2581084},
{"title":"울진파도향기펜션","address":"경북 울진군 평해읍 거일리 61-2번지","phone":"010-5393-6271","lat":36.7115574,"lng":129.4728737},
{"title":"J717","address":"경주시 북군길 158-22 (북군동)","phone":"010-2613-9717","lat":35.8633207,"lng":129.2577077},
{"title":"보경사캠핑장","address":"경북 포항시 북구 송라면 광천1리 695-31","phone":"054-243-4040","lat":36.2307357,"lng":129.3446943},
{"title":"여행길게스트하우스","address":"경상북도 경주시 노동동229","phone":"010-3475-0115","lat":35.8421797,"lng":129.2107609},
{"title":"두레펜션글램핑","address":"경주시 평동 102-3","phone":"054-753-3318","lat":35.8811144,"lng":129.1145501},
{"title":"세상의 모든 아침","address":"경상북도 울진군 기성면 망양리 84-1(망양1길 34)","phone":"010-2657-1050","lat":36.8403776,"lng":129.4356513},
{"title":"솔향기","address":"경북 상주시 화북면 용유리 258","phone":"010-6422-0133","lat":36.5633138,"lng":127.9172216},
{"title":"엘리스의바다","address":"경북 영덕군 남정면 원적리 220-4","phone":"010-2513-3769","lat":36.2991108,"lng":129.3778181},
{"title":"정다운산방","address":"경상북도 경주시 양북면 불국로 951-25","phone":"010-3011-4630","lat":35.775499,"lng":129.3714914},
{"title":"셀비아펜션","address":"경북 포항시 북구 청하면 방어리 19번지","phone":"010-3596-7798","lat":36.2139401,"lng":129.3844304},
{"title":"오아시스글램핑","address":"경북 경주시 구정동 17","phone":"010-2001-7707","lat":35.7908712,"lng":129.3057318},
{"title":"산푸른펜션","address":"경북 경주시 천북면 목실길 14-53","phone":"010-2825-6204","lat":35.8742892,"lng":129.2705403},
{"title":"풀빌라 비사이드","address":"경상북도 울진군 기성면 망양1길 34 (망양리 84-1)","phone":"010-5224-6943","lat":36.7981547,"lng":129.4514164},
{"title":"산새소리 펜션","address":"경상북도 경주시 북군동 196-3","phone":"010-9905-0047","lat":35.8535401,"lng":129.262266},
{"title":"경주한옥펜타운","address":"경북 경주시 강동면 인좌안길 32-39","phone":"010-3944-6080","lat":35.9918493,"lng":129.2615463},
{"title":"더마린","address":"경상북도 경주시 감포읍 오류리 300-9","phone":"054-777-1118","lat":35.8178879,"lng":129.508693},
{"title":"보니또펜션","address":"경북 경주시 천북면 목실길 76","phone":"010-4275-2277","lat":35.8729031,"lng":129.2726975},
{"title":"소소담펜션","address":"경북 경주시 천군1길 31","phone":"010-6552-0222","lat":35.8328975,"lng":129.2778787},
{"title":"예전하우스","address":"경북 경주시 천북면 물천리 1090-1","phone":"010-8592-6706","lat":35.8688436,"lng":129.272855},
{"title":"해를여는펜션","address":"경상북도 경주시 마동 산 86-1번지","phone":"010-8539-5212","lat":35.7807444,"lng":129.3166587},
{"title":"카르페디엠","address":"경상북도 경주시 천군1길 31","phone":"010-4345-2229","lat":35.8328975,"lng":129.2778787},
{"title":"씨스타펜션","address":"경북 성주군 금수면 무학리 1408-5","phone":"010-9341-4445","lat":35.9250601,"lng":128.097254},
{"title":"주왕산통나무펜션","address":"경상북도 청송군 부동면 상의리 602-1","phone":"010-9282-4386","lat":36.3885147,"lng":129.1361387},
{"title":"씨엘블루펜션","address":"경북 경주시 조양동 118-2","phone":"010-9638-8787","lat":35.7749387,"lng":129.2825247},
{"title":"토함빌리지 구정헌","address":"경상북도 경주시 진현동 700-6","phone":"010-4679-5559","lat":35.7845029,"lng":129.3230443},
{"title":"올리비아 글램핑","address":"경상북도 경주시 마동 295-1","phone":"010-5711-0087","lat":35.79082,"lng":129.3156369},
{"title":"더클래식펜션","address":"경북 울진군 후포면 삼율리 정실1길 40-6","phone":"01082552792--","lat":36.6746208,"lng":129.4410843},
{"title":"고래이야기","address":"경북 울진군 후포면 금음리 370","phone":"054-787-1779","lat":36.6457052,"lng":129.4234367},
{"title":"행복한집펜션","address":"경북 경주시 사정동 256-1","phone":"010-9336-3385","lat":35.8270961,"lng":129.2094062},
{"title":"더조은펜션","address":"경북 경주시 손곡동 26-1번지","phone":"010-2666-6251","lat":35.8632481,"lng":129.299501},
{"title":"시쓰는농부펜션","address":"경상북도 경주시 보정로 544-4","phone":"010-9161-6803","lat":35.8228017,"lng":129.2854633},
{"title":"씨앤뷰펜션","address":"포항시 북구 청하면 용두2리 431-35번지","phone":"010-9479-3851","lat":36.1991708,"lng":129.337529},
{"title":"라팡시옹","address":"경상북도 경주시 북군4길 40-4 (북군동)","phone":"010-3372-9009","lat":35.8575904,"lng":129.2579748},
{"title":"경주별빛마루글램핑&펜션","address":"경북 경주시 천북면 화산리 93-6 월정사부근","phone":"010-3832-9141","lat":35.9222013,"lng":129.2938045},
{"title":"더향펜션","address":"경상북도 성주군 덕운로 1439-15","phone":"1097742617","lat":35.7939263,"lng":128.1567511},
{"title":"골든스테이지","address":"경상북도 경주시 감포읍 동해안로 1756","phone":"010-3994-7119","lat":35.765975,"lng":129.4936305},
{"title":"데스티노","address":"경북 경주시 구정동 292-11번지","phone":"010-4725-1742","lat":35.7876536,"lng":129.3025798},
{"title":"해돋이펜션","address":"경상북도 경주시 북군길 153","phone":"054-748-8020","lat":35.8618906,"lng":129.2584635},
{"title":"더스퀘어펜션","address":"경상북도 경주시 마동 722","phone":"010-9376-7671","lat":35.7789165,"lng":129.3138691},
{"title":"별다락방펜션","address":"경상북도 경주시 도지동 308-11","phone":"054-775-8408","lat":35.7988775,"lng":129.2719028},
{"title":"아델리아 별관","address":"경상북도 경주시 하동 253-1","phone":"010-9474-7711","lat":35.8064163,"lng":129.3053954},
{"title":"경주 펜션이야기..ing","address":"경상북도 경주시 천북면 물천리 748-3","phone":"010-4826-7909","lat":35.8763856,"lng":129.281817},
{"title":"성주 별&별펜션","address":"경상북도 성주군 금수면 무학리 1385-1","phone":"010-3150-2604","lat":35.924661,"lng":128.0969831},
{"title":"아라펜션","address":"경상북도 포항시 남구 구룡포읍 구룡포6리","phone":"054-282-2840","lat":35.9920293,"lng":129.5671263},
{"title":"까스띠요","address":"경상북도 경주시 하동 45-6번지","phone":"010-2750-2288","lat":35.7939175,"lng":129.3158218},
{"title":"숲속의아침","address":"경상북도 성주군 가천면 신계리 858-1번지","phone":"010-3513-4376","lat":35.8588998,"lng":128.1058836},
{"title":"세오녀펜션","address":"경상북도 경주시 천군동 409-2","phone":"010-4707-4691","lat":35.8333506,"lng":129.2770515},
{"title":"캐빈하우스","address":"경상북도 경주시 천북면 물천리 1217번지","phone":"010-6782-5200","lat":35.8744676,"lng":129.2708056},
{"title":"더모스트풀빌라","address":"경상북도 포항시 북구 송라면 조사리 73-2","phone":"010-6380-7929","lat":36.2221294,"lng":129.3848105},
{"title":"더원펜션","address":"경상북도 경주시 천북면 물천리 599번지","phone":"010-3426-6034","lat":35.868453,"lng":129.2805222},
{"title":"봄봄펜션","address":"경상북도 경주시 마동 973-1번지","phone":"010-7160-3311","lat":35.7857037,"lng":129.3103395},
{"title":"온마루펜션","address":"경상북도 경주시 하동 616","phone":"010-9469-7095","lat":35.7986283,"lng":129.3157435},
{"title":"경주소풍펜션","address":"경상북도 경주시 감포읍 오류리 146-3번지","phone":"010-5210-8850","lat":35.8361692,"lng":129.5168862},
{"title":"네모나무펜션","address":"경상북도 성주군 수륜면 덕운로 1421-6","phone":"010-5772-7848","lat":35.8329158,"lng":128.1923774},
{"title":"경주개울가펜션","address":"경상북도 경주시 물천리 40번지","phone":"010-4482-3411","lat":35.8738211,"lng":129.2846879},
{"title":"구산 글램핑&오토캠핑장","address":"경상북도 울진군 기성면 구산리 72-1 구산해수욕장 내 오토캠핑장","phone":"054-788-9355","lat":36.7653806,"lng":129.4734153},
{"title":"욜로 YOLO","address":"경상북도 경주시 천북면 물천리 1086-2","phone":"010-3599-9573","lat":35.867216,"lng":129.2730228},
{"title":"자연과문화","address":"경상북도 경주시 사라운대길 41-46","phone":"010-7231-7003","lat":35.8876794,"lng":129.0670515},
{"title":"포항 카시스 풀빌라","address":"경상북도 포항시 북구 청하면 용두리 431-38번지","phone":"010-4640-3765","lat":36.1998398,"lng":129.3708236},
{"title":"새재로그하우스","address":"경상북도 문경시 문경읍 상초리 308번지","phone":"010-3533-2614","lat":36.7580172,"lng":128.0802563},
{"title":"문경새재다온펜션","address":"경상북도 문경시 문경읍 새재1길 49 (하초리 363-1)","phone":"010-6780-2932","lat":36.7554468,"lng":128.0764894},
{"title":"마법의성","address":"경상북도 경주시 구정동 17번지","phone":"010-3447-2300","lat":35.7908712,"lng":129.3057318},
{"title":"경주 그집이야기펜션","address":"경상북도 경주시 동천동 370번지, 황오동 4-16","phone":"010-7248-5930","lat":35.8561719,"lng":129.2247477},
{"title":"위연재한옥스테이","address":"경상북도 경주시 황남동 쪽샘길 7 (황남동 95-6번지)","phone":"010-9384-1000","lat":35.8335353,"lng":129.207444},
{"title":"슈가파인","address":"대구광역시 달성군 가창면 헐티로 889","phone":"010-4144-2090","lat":35.7785164,"lng":128.5944872},
{"title":"문텐펜션","address":"울산 광역시 동구 주전동 84-3","phone":"010-7566-6411","lat":35.5628065,"lng":129.4560036},
{"title":"sm리조트","address":"울산광역시 울주군 상북면 등억리 541-1","phone":"052-254-0800","lat":35.5538691,"lng":129.0667094},
{"title":"인어펜션","address":"울산광역시 북구 당사동 126","phone":"010-9238-5293","lat":35.5941688,"lng":129.4628875},
{"title":"노을속의수채화","address":"울산 북구 당사동 152-5","phone":"010-3871-2764","lat":35.5928436,"lng":129.4624739},
{"title":"해비치하우스","address":"울산과역시 북구 어물동 214-7","phone":"010-8550-1889","lat":35.5734227,"lng":129.4523468},
{"title":"까사까미노펜션","address":"울산광역시 북구 어물동 1336","phone":"010-4585-9377","lat":35.5780108,"lng":129.452295},
{"title":"인어바다펜션","address":"울산광역시 북구 당사동 126번지","phone":"010-5374-1949","lat":35.5941688,"lng":129.4628875},
{"title":"디자인뷰펜션","address":"울산광역시 북구 아름1길 2-1","phone":"010-8768-0295","lat":35.5817543,"lng":129.4441861},
{"title":"은혜펜션","address":"인천시 옹진군 북도면 신도리 451-2","phone":"032-751-3535","lat":37.5202232,"lng":126.4480508},
{"title":"메르메종","address":"인천광역시 옹진군 북도면 신도리 726번지","phone":"010-3180-8931","lat":37.5284396,"lng":126.4389816},
{"title":"이솔라펜션","address":"인천광역시 옹진군 북도면 시도리 277-17","phone":"010-5211-9255","lat":37.5337996,"lng":126.4287948},
{"title":"해밀의아침","address":"인천광역시 옹진군 북도면 신도2리 535번지","phone":"010-2004-9195","lat":37.51939331,"lng":126.436286},
{"title":"숲을사랑한바다","address":"인천광역시 옹진군 북도면 신도리 483번지","phone":"010-9043-5306","lat":37.5205954,"lng":126.4449786},
{"title":"바다가보이는정원","address":"인천광역시 옹진군 북도면 시도리 144번지","phone":"070-8880-6591","lat":37.5378962,"lng":126.426946},
{"title":"하늘정원","address":"인천광역시 강화군 화도면 장화리 985-53","phone":"010-8978-0772","lat":37.6163845,"lng":126.4016091},
{"title":"이작아일랜드","address":"인천광역시 옹진군 자월면 이작리 297","phone":"032-858-8899","lat":37.159211,"lng":126.2801508},
{"title":"호수와정원","address":"인천광역시 강화군 길상면 길작리 259-8","phone":"010-2376-0542","lat":37.6405809,"lng":126.4911751},
{"title":"하늘가펜션","address":"인천 옹진군 북도면 신도리 728번지","phone":"010-2771-4066","lat":37.5284597,"lng":126.4393432},
{"title":"매료37.5펜션","address":"인천광역시 옹진군 북도면 신도리 168번지","phone":"010-2861-0375","lat":37.5183551,"lng":126.4560042},
{"title":"블루라떼펜션","address":"인천시 옹진군 영흥면 선재리 636번지","phone":"010-9166-5407","lat":37.2526805,"lng":126.5144658},
{"title":"마니산스토리","address":"인천광역시 강화군 화도면 여차리 645-1","phone":"1086547890","lat":37.6098029,"lng":126.3965018},
{"title":"로맨틱큐브","address":"인천광역시 강화군 길상면 선두리 965-21","phone":"010-4678-2242","lat":37.6161603,"lng":126.487347},
{"title":"가또펜션","address":"인천광역시 옹진군 영흥면 내리 831번지","phone":"010-8871-3709","lat":37.2784035,"lng":126.4818868},
{"title":"바람이머문바다","address":"인천광역시 옹진군 북도면 시도리 1-3","phone":"010-2990-8857","lat":37.5445124,"lng":126.4380954},
{"title":"메종스텔라 펜션","address":"인천광역시 강화군 길상면 마나산로 217길 21-10","phone":"010-9408-0225","lat":37.6405809,"lng":126.4911751},
{"title":"풀사이드펜션","address":"인천 옹진군 북도면 시도리 46","phone":"032-752-2580","lat":37.5441536,"lng":126.4313543},
{"title":"영흥도 꿈의궁전펜션","address":"인천광역시 옹진군 영흥면 내리 1329-7","phone":"010-8956-1459","lat":37.27782,"lng":126.4573167},
{"title":"강화도에코펜션","address":"인천시 강화군 길상면 해안남로 789-16 (길상면 선두리 892-13)","phone":"010-8211-6974","lat":37.6078817,"lng":126.4795111},
{"title":"바다빛노을동산","address":"인천광역시 강화군 화도면 해안남로 2449번길 29","phone":"010-8870-9230","lat":37.6202584,"lng":126.3796617},
{"title":"이즈바펜션","address":"인천광역시 강화군 화도면 장화리 258-8","phone":"010-7675-0676","lat":37.6252288,"lng":126.3774173},
{"title":"시에스타펜션","address":"인천광역시 강화군 화도면 여차리 768","phone":"010-6692-2145","lat":37.6109336,"lng":126.3915984},
{"title":"리하우스펜션","address":"전라남도 완도군 신지면 신리 177-3","phone":"061-555-3311","lat":34.3302515,"lng":126.818224},
{"title":"산내음펜션","address":"전남 담양군 용면 월계리 214번지","phone":"010-3604-5118","lat":35.4050773,"lng":126.9953572},
{"title":"숲속의호수펜션","address":"전남 담양군 용면 월계리 312-3","phone":"010-8936-1400","lat":35.4076894,"lng":126.9947083},
{"title":"여수해오름펜션","address":"전남 여수시 돌산읍 평사리 1256번지(돌산읍 계동로 558)","phone":"010-9608-7156","lat":34.682087,"lng":127.7757537},
{"title":"쁘띠까도","address":"전남 당양군 용면 추성리 197-27","phone":"010-9316-1531","lat":35.3675392,"lng":126.9987068},
{"title":"메이플펜션","address":"전라남도 담양군 용면 용치리 483","phone":"010-9388-0039","lat":35.4208105,"lng":126.9936291},
{"title":"소듐 펜션","address":"전라남도 담양군 용면 추월산로 900-7","phone":"010-4662-4582","lat":35.3949668,"lng":126.9950319},
{"title":"여수해오름스파펜션","address":"전남 여수시 돌산읍 죽포리 307-7","phone":"010-3086-7799","lat":34.6311029,"lng":127.7926009},
{"title":"빨간자전거펜션","address":"경상남도 남해군 삼동면 양화금로 52번길 36-22","phone":"070-7716-8377","lat":34.8218811,"lng":128.0440058},
{"title":"프롬갤러리 펜션","address":"전남 여수시 돌산읍 평사리 336-1","phone":"010-3679-9667","lat":34.6690043,"lng":127.7832525},
{"title":"황금호숫가펜션","address":"전남 순천시 상사면 상사호길 665","phone":"010-2964-9044","lat":34.9724823,"lng":127.389886},
{"title":"오쏘펜션","address":"전라남도 담양군 용면 추월산로 977-3","phone":"010-7901-2003","lat":35.4017849,"lng":126.9997366},
{"title":"호시담","address":"전라남도 담양군 용면 쌍태리 산 128-9","phone":"010-7211-9880","lat":35.3892825,"lng":126.9636337},
{"title":"나로리뷰","address":"전라남도 고흥군 동일면 덕흥리 24-9","phone":"010-3626-4672","lat":35.33578,"lng":126.467035},
{"title":"지리산카라반큐브파크","address":"전라남도 구례군 토지면 외곡리 159-4","phone":"010-2108-6782","lat":35.2187181,"lng":127.604837},
{"title":"디마레풀&스파","address":"전라남도 여수시 돌산읍 금봉리 1493","phone":"010-3737-1493","lat":34.6420308,"lng":127.7206139},
{"title":"리조트 가온","address":"전라남도 신안군 증도면 지도증도로 1712","phone":"01033807003--","lat":34.9921415,"lng":126.1574555},
{"title":"바람의정원","address":"전북 부안군 변산면 도청리 206번지","phone":"010-3682-2626","lat":35.5845477,"lng":126.5034942},
{"title":"무주펜션숲","address":"전북 무주군 무주읍 장백리 242-1","phone":"010-2446-4437","lat":36.0333956,"lng":127.7124247},
{"title":"알로프랑스","address":"전라북도 무주군 무풍면 삼거리 353-2","phone":"010-6235-9286","lat":35.9018143,"lng":127.8108035},
{"title":"생폴드방스","address":"전라북도 부안군 진서면 운호리 155-9","phone":"010-4009-0918","lat":35.5966397,"lng":126.5571841},
{"title":"고창코지테마펜션","address":"전라북도 고창군 부안면 선운리 725","phone":"063-562-0014","lat":35.5315793,"lng":126.5979662},
{"title":"쁘띠블랑펜션","address":"전라북도 부안군 변산면 격포리 241-6번지","phone":"01031852767--","lat":35.6364531,"lng":126.4625859},
{"title":"푸른강가애","address":"전라북도 무주군 부남면 굴암리 150-3","phone":"063-324-9115","lat":35.9920192,"lng":127.5984558},
{"title":"세레노펜션","address":"전라북도 고창군 부안면 선운리 725(인촌로56-6)","phone":"010-5097-1139","lat":35.5315793,"lng":126.5979662},
{"title":"게스트하우스모모","address":"전북 무주군 설천면 삼공리 348-10번지","phone":"063-322-7373","lat":35.9080431,"lng":127.7819378},
{"title":"더숲펜션","address":"전라북도 무주군 부남면 잠두강변길 209","phone":"010-5209-4730","lat":36.002694,"lng":127.5989158},
{"title":"코델리아펜션","address":"전라북도 부안군 변산면 마포리 571-2번지","phone":"010-9346-2608","lat":35.6367594,"lng":126.4877804},
{"title":"무주인게스트하우스","address":"전라북도 무주군 설천면 구천동1로 150","phone":"010-6416-0268","lat":35.8993394,"lng":127.7757603},
{"title":"여행가방펜션","address":"전북 무주군 적상면 괴목리 치마재로 505","phone":"010-7337-7691","lat":35.9282945,"lng":127.7199945},
{"title":"구천동흙집풍경펜션","address":"전라북도 무주군 설천면 구천동로 2214","phone":"010-3724-9160","lat":35.9830277,"lng":127.7840948},
{"title":"무주스케치펜션","address":"전라북도 무주군 설천면 구천동로 808-40","phone":"063-323-7789","lat":35.9065131,"lng":127.7826532},
{"title":"제주산림조합리조트","address":"제주시 구좌읍 세화리 1725 번지","phone":"064-784-2217","lat":33.5109271,"lng":126.8478751},
{"title":"돔그라미펜션","address":"제주도 표선면 표선리 2755-4","phone":"064-787-9000","lat":33.3356002,"lng":126.8100243},
{"title":"힐링빌펜션","address":"제주특별자치도 서귀포시 안덕면 사계리 978번지","phone":"1087702825","lat":33.2489557,"lng":126.2997611},
{"title":"윤재송","address":"제주도 서귀포시 남원읍 신례리 362-5","phone":"1026281428","lat":33.275011,"lng":126.6383484},
{"title":"자연속에 건축학개론펜션","address":"제주특별자치도 서귀포시 성산읍 신풍리 188번지","phone":"064-784-0007","lat":33.358417,"lng":126.8598154},
{"title":"호미하우스","address":"제주시 한림읍 옹포리 351-6 (한림해안길9길)","phone":"010-2691-2099","lat":33.4058925,"lng":126.2549733},
{"title":"바람코지게스트하우스","address":"제주도 서귀포시 하효중앙로 5","phone":"010-9254-0538","lat":33.2562626,"lng":126.6194058},
{"title":"노을담은뜨락","address":"제주특별자치도 서귀포시 대정읍 무릉리 3878-9","phone":"010-5258-4993","lat":33.256242,"lng":126.1904113},
{"title":"제주야자원펜션","address":"제주도 서귀포시 표선면 하천리 1385-4번지","phone":"010-7687-7112","lat":33.3608877,"lng":126.8245549},
{"title":"화가의정원","address":"충남 태안군 남면 양잠리 1230-19","phone":"010-9942-1336","lat":36.6424637,"lng":126.3022154},
{"title":"피아노펜션","address":"충남 태안군 안면읍 신야리 781-8 샛별해수욕장내","phone":"010-9372-5101","lat":36.4457409,"lng":126.3369117},
{"title":"레이펜션","address":"충청남도 태안군 남면 양참리 1230-11 레이펜션","phone":"010-3350-9799","lat":36.6431113,"lng":126.3019384},
{"title":"밀키블루","address":"충청남도 태안군 남면 양장리 1230-92","phone":"010-6888-6755","lat":36.6402612,"lng":126.3047964},
{"title":"린더버그","address":"충남 태안군 남면 신온리 952-19","phone":"010-9692-2223","lat":36.6084785,"lng":126.2910461},
{"title":"엘도라도펜션","address":"충청남도 태안군 남면 신온리 952-5","phone":"010-5116-2039","lat":36.6116998,"lng":126.2906587},
{"title":"아름다운펜션","address":"충남 태안군 고남면 장곡리 151-24번지","phone":"010-6755-3049","lat":36.4531541,"lng":126.3829161},
{"title":"골든웨이브","address":"충남 태안군 남면 신온리 833-168번지","phone":"010-4948-5381","lat":36.5970895,"lng":126.2901698},
{"title":"팜카밀레","address":"충청남도 태안군 남면 용산리 977번지","phone":"041-672-3615","lat":36.6718585,"lng":126.2984495},
{"title":"하울펜션","address":"충남 태안군 고남면 고남리 1775-2 (안면도)","phone":"010-4470-5590","lat":36.4128707,"lng":126.401473},
{"title":"로뎀펜션","address":"충청남도 태안군 고남면 고남리 826-1","phone":"010-9587-0440","lat":36.4140488,"lng":126.4056711},
{"title":"그람피하우스","address":"충남 태안군 남면 달산리 319-17","phone":"010-8515-6653","lat":36.6565504,"lng":126.3083402},
{"title":"파티파티펜션","address":"충청남도 태안군 남면 양장리 1230-28번지","phone":"010-5396-5082","lat":36.6415601,"lng":126.3024801},
{"title":"라반하우스","address":"충남 태안군 안면읍 승언2리 1959-9번지","phone":"010-8519-4017","lat":36.5250715,"lng":126.3357452},
{"title":"오션갤러리펜션","address":"충청남도 태안군 남면 신장리 353-40","phone":"010-4298-2006","lat":36.6710507,"lng":126.2862123},
{"title":"인어공주펜션","address":"충남 태안군 남면 신온리 5-3","phone":"010-9339-2062","lat":36.6128637,"lng":126.2912053},
{"title":"몽산포아라","address":"충남 태안군 남면 신장리 353-41","phone":"010-2422-2657","lat":36.671327,"lng":126.2865708},
{"title":"초록꿈노을비치","address":"충남 태안군 남면 몽산리 600번지","phone":"010-4592-0601","lat":36.6816806,"lng":126.2691303},
{"title":"다빈치펜션","address":"충청남도 태안군 안면읍 신야리 781-11","phone":"1043864009","lat":36.445542,"lng":126.3366081},
{"title":"숲속의바다","address":"충남 태안군 이원면 내리 1148-4","phone":"010-3244-1222","lat":36.9173711,"lng":126.3014792},
{"title":"해맞이펜션","address":"충남 태안군 고남면 고남리 26-4","phone":"010-7900-6309","lat":36.4252731,"lng":126.4316348},
{"title":"로망스펜션","address":"충청남도 태안군 안면읍 창기6리 1317-1","phone":"010-7167-4548","lat":36.5705448,"lng":126.3184919},
{"title":"소나무풍경","address":"충남 태안군 남면 원청리 562-9","phone":"1096333272","lat":36.6345887,"lng":126.303967},
{"title":"힐마레펜션","address":"충남 태안군 안면읍 승언리 1947-25","phone":"010-3900-6670","lat":36.5272032,"lng":126.3348845},
{"title":"마리솔펜션","address":"충남 태안군 신장리 353-67번지","phone":"010-3510-6257","lat":36.6729132,"lng":126.2875268},
{"title":"썬샤인펜션","address":"충남 태안군 안면읍 승언리 1906-2","phone":"010-2349-6406","lat":36.5303576,"lng":126.332596},
{"title":"바다애보석","address":"충남 태안군 안면읍 승언리 1336번지","phone":"010-5171-4581","lat":36.5135387,"lng":126.3332796},
{"title":"우아한세상","address":"충남 태안군 안면읍 창기리 1230-24","phone":"010-9044-3878","lat":36.575682,"lng":126.3264949},
{"title":"그림일기펜션","address":"충남 태안군 남면 양잠리 1230-33","phone":"010-6487-4848","lat":36.64104,"lng":126.3030383},
{"title":"청포대하와이펜션","address":"충청남도 태안군 남면 원청리 512-85","phone":"041-675-5858","lat":36.6387,"lng":126.3048876},
{"title":"쁘띠메종","address":"충남 태안군 남면 신온리 161-2","phone":"010-5260-7146","lat":36.6150268,"lng":126.3069553},
{"title":"공간487","address":"충청남도 태안군 남면 몽대로 487","phone":"010-6377-5051","lat":36.6732141,"lng":126.2737967},
{"title":"더나무펜션","address":"충남 태안군 이원면 관리 631-7","phone":"010-5393-3883","lat":36.8992338,"lng":126.2944519},
{"title":"안면도아일랜드","address":"충남 태안군 안면읍 정당리 193-58","phone":"010-5699-7715","lat":36.5667849,"lng":126.3682543},
{"title":"스타팰리스","address":"충남 태안군 남면 신온리 26-11","phone":"010-6440-0095","lat":36.6114077,"lng":126.2963165},
{"title":"이노센스펜션","address":"충남 태안군 안면읍 중장5리 1477-30번지","phone":"010-3619-5416","lat":36.4634679,"lng":126.4166047},
{"title":"해변의길손펜션","address":"충남 태안군 고남면 장곡리","phone":"010-7714-9233","lat":36.4308038,"lng":126.3788016},
{"title":"아그리나펜션","address":"충남 태안군 남면 양잠리 1230-22","phone":"010-9675-2460","lat":36.6422971,"lng":126.3022247},
{"title":"코자펜션","address":"충남 태안군 안면읍 라암로 71","phone":"010-6346-2777","lat":36.5163098,"lng":126.3573205},
{"title":"드림펜션","address":"충남 태안군 안면읍 창기리 36-1번지","phone":"010-8881-9521","lat":36.6043632,"lng":126.3649639},
{"title":"좋은생각펜션","address":"충남 태안군 안면읍 창기리 1401-30","phone":"010-6317-2317","lat":36.5695893,"lng":126.3209636},
{"title":"하늘엔펜션","address":"충남 태안군 안면읍 승언리 3086-4번지","phone":"010-8536-9784","lat":36.5046015,"lng":126.342662},
{"title":"바다가쓴시","address":"충남 태안군 고남면 고남리 1780","phone":"010-9606-7776","lat":36.4129446,"lng":126.4013399},
{"title":"바다산책펜션","address":"충남 태안군 고남면 누동리 1523-1","phone":"010-7441-5124","lat":36.4340936,"lng":126.4308161},
{"title":"마로니에펜션","address":"충청남도 태안군 안면읍 승언리 63-29","phone":"010-9195-9998","lat":36.504016,"lng":126.3540062},
{"title":"해랑펜션","address":"충남 태안군 고남면 고남리 1775","phone":"010-5001-0308","lat":36.413145,"lng":126.4017651},
{"title":"미래의 아침","address":"충남 당진군 석문면 장고창항리 14-11","phone":"041-354-9911","lat":36.9819022,"lng":126.5908916},
{"title":"그녀의바다","address":"충남 태안군 남면 원청리 512-33","phone":"010-8894-7988","lat":36.6373087,"lng":126.3016555},
{"title":"곰섬파라다이스","address":"충남 태안군 남면 신온리 907번지","phone":"010-7280-0666","lat":36.5930058,"lng":126.2865387},
{"title":"곰섬올레펜션","address":"충남 태안군 남면 신온리 903-42","phone":"010-3828-6379","lat":36.5911747,"lng":126.2892332},
{"title":"뜨락펜션","address":"충남 태안군 고남면 고남리 133번지","phone":"010-2905-0652","lat":36.4067038,"lng":126.4224464},
{"title":"꽃지사랑펜션","address":"충남 태안군 안면읍 승언4구 162","phone":"010-5466-3473","lat":36.5129632,"lng":126.3878403},
{"title":"로하스펜션","address":"충남 태안군 남면 신온리 952-53","phone":"010-5659-0815","lat":36.6099221,"lng":126.2905515},
{"title":"골드오션펜션","address":"충남 태안군 남면 몽산리 782-2","phone":"041-674-0885","lat":36.6747173,"lng":126.2804035},
{"title":"서해송펜션","address":"충남 태안군 남면 신온리 952-40","phone":"010-4172-8068","lat":36.6130699,"lng":126.2894369},
{"title":"네이비블루펜션","address":"충남 태안군 안면읍 창기리 1291-101","phone":"010-2965-3327","lat":36.5723888,"lng":126.3169861},
{"title":"시밀레펜션","address":"충남 태안군 남면 신온리 903-31","phone":"010-7471-6286","lat":36.5906917,"lng":126.2894841},
{"title":"엘마르펜션","address":"충남 태안군 남면 신온리 952-46","phone":"010-9095-3311","lat":36.60818,"lng":126.2909711},
{"title":"노을애향기","address":"충남 보령시 천북면 학성리 563-7","phone":"010-9570-0467","lat":36.454802,"lng":126.4873592},
{"title":"비쥬펜션","address":"충청남도 태안군 안면읍 중장리 2119-1번지","phone":"010-7280-9955","lat":36.4887058,"lng":126.340924},
{"title":"가장자리펜션","address":"충남 태안군 남면 양잠리 1230-15","phone":"010-4143-5988","lat":36.6427943,"lng":126.3020784},
{"title":"아이리스펜션","address":"충청남도 태안군 안면읍 승언리 189","phone":"010-2552-0224","lat":36.49233569,"lng":126.3414402},
{"title":"바람막이펜션","address":"충남 보령시 웅천읍 관당리 801-11","phone":"010-9570-0288","lat":36.2432168,"lng":126.5370765},
{"title":"장미빛인생","address":"충청남도 태안군 안면읍 승언4리 182-3번지","phone":"041-673-6006","lat":36.4921392,"lng":126.3408016},
{"title":"타이티펜션","address":"충남 태안군 남면 몽산리길 67-24","phone":"010-5838-5505","lat":36.6868892,"lng":126.2738741},
{"title":"게스트하우스 소소","address":"충청남도 태안군 남면 양잠리 1230-867","phone":"010-2933-3442","lat":36.6416235,"lng":126.3061139},
{"title":"티티카카펜션","address":"충청남도 태안군 안면읍 승언리 1341-2","phone":"01044492019--","lat":36.51359,"lng":126.3395366},
{"title":"캐슬오션힐 펜션","address":"충남 태안군 안면읍 승언리 1574-7","phone":"010-8445-8482","lat":36.5317333,"lng":126.3361842},
{"title":"엘리스의정원","address":"충청남도 태안군 안면읍 승언리 218-28","phone":"010-6289-5734","lat":36.4935429,"lng":126.3411712},
{"title":"화이트블루 펜션","address":"충청남도 태안군 안면읍 승언리 1984-2","phone":"010-7177-6697","lat":36.525703,"lng":126.3321209},
{"title":"바다마루펜션","address":"충청남도 태안군 안면읍 황도리 41-1","phone":"010-5318-5590","lat":36.5978776,"lng":126.3813109},
{"title":"안면도해비치펜션","address":"충남 태안군 안면읍 중장5리 177-14","phone":"010-3065-6799","lat":36.4881513,"lng":126.3591496},
{"title":"원산아일랜드펜션","address":"충청남도 보령시 오천면 원산도리 원산5길 19-29번지","phone":"010-6404-9999","lat":36.4383534,"lng":126.5224226},
{"title":"솔누리펜션","address":"충청남도 태안군 남면 몽산리 783-24","phone":"010-4228-6111","lat":36.6749389,"lng":126.2817118},
{"title":"섬찾사펜션","address":"충청남도 태안군 고남면 고남리 334-42번지","phone":"010-2318-9771","lat":36.3996021,"lng":126.4269106},
{"title":"아리바다","address":"충남 태안군 남면 원청리 512-42번지","phone":"010-4064-2226","lat":36.6366399,"lng":126.3016467},
{"title":"일곱번째고양이","address":"충청남도 태안군 안면읍 승언4리 219-2","phone":"010-2769-6361","lat":36.4939824,"lng":126.3397333},
{"title":"솔푸른향기","address":"충청남도 태안군 안면읍 창기리 7리 1523-2","phone":"010-8504-6130","lat":36.6002275,"lng":126.3503516},
{"title":"블루아라펜션","address":"충청남도 태안군 안면읍 승언리 1944-12","phone":"010-6337-8952","lat":36.526372,"lng":126.3320217},
{"title":"예소담","address":"충남 태안군 근흥면 정죽리 483-1","phone":"010-7554-2391","lat":36.710518,"lng":126.1820317},
{"title":"샤갈펜션","address":"충남 태안군 남면 신온리 168-15","phone":"01037442323--","lat":36.6135512,"lng":126.3017274},
{"title":"푸른정원펜션","address":"충청남도 태안군 안면읍 승언리 174-2","phone":"010-8424-8812","lat":36.4928063,"lng":126.338947},
{"title":"멜로디펜션","address":"충청남도 태안군 안면읍 승언리 220","phone":"010-2468-9468","lat":36.4936869,"lng":126.3396046},
{"title":"백사장힐하우스","address":"충청남도 태안군 안면읍 창기리 1208-1","phone":"010-4062-3520","lat":36.5802378,"lng":126.3287227},
{"title":"야우리펜션","address":"충청남도 태안군 고남면 고남4리 1772-4","phone":"010-5426-6901","lat":36.4203615,"lng":126.4091543},
{"title":"바다와솔숲","address":"충남 태안군 고남면 고남리 190-16","phone":"010-5309-1888","lat":36.4054734,"lng":126.4252237},
{"title":"구매항","address":"충남 태안군 고남면 고남리 13번지","phone":"010-3340-9974","lat":36.4249607,"lng":126.4277495},
{"title":"나폴리펜션","address":"충청남도 태안군 남면 양장리 1230-18","phone":"010-5322-5600","lat":36.6426301,"lng":126.3021313},
{"title":"풍차와바다펜션","address":"충남 태안군 안면읍 승언리 해안 관광로 276-72","phone":"010-8932-6197","lat":36.5450443,"lng":126.3277338},
{"title":"장꽁펜션","address":"충남 태안군 안면읍 정당리 1314-10","phone":"010-7176-1321","lat":36.5460184,"lng":126.3306838},
{"title":"아침바다펜션","address":"충남 태안군 안면읍 창기리 1330-21","phone":"010-8995-9909","lat":36.5731829,"lng":126.3187854},
{"title":"티파니펜션","address":"충청남도 태안군 안면읍 승언리 174-1","phone":"041-673-3604","lat":36.4931348,"lng":126.338853},
{"title":"더흙펜션","address":"충청남도 태안군 남면 신온리 233-3","phone":"010-2679-7890","lat":36.6197921,"lng":126.3052604},
{"title":"몰디브펜션","address":"충청남도 태안군 안면읍 황도리 59-42","phone":"010-9162-8161","lat":36.5969446,"lng":126.3815483},
{"title":"안면도힐링펜션","address":"충남 태안군 안면읍 창기리 2030-1","phone":"010-4015-9916","lat":36.5735864,"lng":126.3576161},
{"title":"목신의오후","address":"충남 태안군 안면읍 승언리 191번지","phone":"010-6211-7783","lat":36.4927211,"lng":126.3420213},
{"title":"초록동화펜션","address":"충남 태안군 남면 신온리 168-14","phone":"010-9851-0707","lat":36.6137977,"lng":126.3017622},
{"title":"갤러리펜션","address":"충청남도 태안군 고남면 고남리 829","phone":"010-4089-5743","lat":36.4131724,"lng":126.4044191},
{"title":"별빛바다펜션","address":"충청남도 태안군 고남면 고남리 1673-1","phone":"010-9243-3988","lat":36.4184574,"lng":126.4035963},
{"title":"메모리독 펜션","address":"충청남도 태안군 안면읍 중장리 185-1","phone":"010-7397-1916","lat":36.4844797,"lng":126.3620681},
{"title":"동백원펜션","address":"충청남도 태안군 고남면 누동리 950-4","phone":"010-2857-4110","lat":36.4511625,"lng":126.4079781},
{"title":"마음속의집","address":"충청남도 태안군 근흥면 도황리 1526-151","phone":"010-6780-8893","lat":36.6947679,"lng":126.212419},
{"title":"메리엘펜션","address":"충남 태안군 안면읍 승언리 1297-6","phone":"010-2222-7510","lat":36.5108803,"lng":126.3479746},
{"title":"아라펜션","address":"충남 태안군 안면읍 정당리 193-40","phone":"010-4690-2537","lat":36.5669188,"lng":126.3684268},
{"title":"펜션153","address":"충남 태안군 안면읍 승언리 1341-7","phone":"010-8469-6100","lat":36.5146839,"lng":126.3397265},
{"title":"꽃지아일랜드","address":"충남 안면읍 승언리 1297-34","phone":"010-7379-7260","lat":36.5107559,"lng":126.3480375},
{"title":"힐링하우스","address":"충청남도 태안군 안면읍 승언리 236 (신주소:꽃지 2길 49-20)","phone":"010-9011-3833","lat":36.494624,"lng":126.3382453},
{"title":"지중해아침펜션","address":"충남 태안군 고남면 장곡리 403-18","phone":"010-6425-8655","lat":36.4141685,"lng":126.3714094},
{"title":"레인보우캐슬","address":"충청남도 태안군 남면 몽산리 934-2","phone":"010-4977-3220","lat":36.6862018,"lng":126.2697752},
{"title":"빨간풍선 펜션","address":"충청남도 태안군 남면 양잠리 1230-66","phone":"010-2625-6106","lat":36.6414667,"lng":126.3040845},
{"title":"이니스프리펜션","address":"충청남도 태안군 안면읍 대야로304-22(중장5리 1477-23)","phone":"010-9318-7989","lat":36.4621778,"lng":126.416226},
{"title":"라루나펜션","address":"충남 태안군 남면 신온리 652-50","phone":"010-3050-8111","lat":36.6043389,"lng":126.3074013},
{"title":"등대펜션","address":"충청남도 태안군 안면읍 승언리 227","phone":"010-9180-5625","lat":36.4941936,"lng":126.3386585},
{"title":"백합펜션","address":"충남 태안군 남면 양잠2리 1235-3","phone":"010-6720-2048","lat":36.6718585,"lng":126.2984495},
{"title":"수평선펜션","address":"충남 태안군 고남면 큰장돌길 283-47(장곡리 608-2) 수평선펜션","phone":"1086687858","lat":36.4234238,"lng":126.3605228},
{"title":"베이스캠프","address":"충남 태안군 안면읍 승언리 1338 베이스캠프","phone":"010-8469-6100","lat":36.5128761,"lng":126.3384869},
{"title":"메이비펜션","address":"충남 태안군 소원면 만리포2길 233번지 (구 의항리 895-31)","phone":"010-2262-3164","lat":36.7979007,"lng":126.1519171},
{"title":"장승마을펜션","address":"충청남도 공주시 사곡면 유구 마곡사로 1231","phone":"041-841-5220","lat":36.5572098,"lng":127.0219092},
{"title":"장승마을카라반","address":"충청남도 공주시 사곡면 유구 마곡사로 1231","phone":"041-841-5220","lat":36.5572098,"lng":127.0219092},
{"title":"안면도꽃지바다","address":"충남 태안군 안면읍 승언리 4구 211","phone":"010-2446-8589","lat":36.5144302,"lng":126.3529178},
{"title":"몽산포힐펜션","address":"충남 태안군 남면 몽산포길 52-14","phone":"010-6629-6811","lat":36.6732587,"lng":126.2896859},
{"title":"아트펜션","address":"충남 태안군 남면 원청리 509-2","phone":"010-6350-3576","lat":36.6388314,"lng":126.3055668},
{"title":"테티스펜션","address":"충남 태안군 소원면 모항리 829-3","phone":"010-7467-1201","lat":36.7552615,"lng":126.1294833},
{"title":"데네브펜션","address":"충청남도 태안군 남면 뭉산리 249-7","phone":"010-9188-9003","lat":36.6785855,"lng":126.2771537},
{"title":"아낌없이주는나무","address":"충남 태안군 창기리 삼봉길 112","phone":"010-9208-8502","lat":36.5702747,"lng":126.3240108},
{"title":"마리모펜션","address":"충청남도 태안군 안면읍 해안관광로 276-7","phone":"041-673-8154","lat":36.5268018,"lng":126.3328521},
{"title":"히든빌리지펜션","address":"충청남도 보령시 웅천읍 간드리3길 42-17","phone":"1095744655","lat":36.2450952,"lng":126.540575},
{"title":"파인트리펜션","address":"충청남도 태안군 안면읍 창기리 406-15","phone":"010-9180-5555","lat":36.5677793,"lng":126.3430099},
{"title":"비포선셋펜션","address":"충청남도 태안군 고남면 811-4","phone":"010-3241-6901","lat":36.4203615,"lng":126.4091543},
{"title":"버디캠핑","address":"충청남도 태안군 남면 진산1길 277-200","phone":"010-2878-1092","lat":36.7136999,"lng":126.2761824},
{"title":"스마일펜션","address":"충청남도 태안군 안면읍 승언리 1336-97","phone":"01055608440--","lat":36.514059,"lng":126.3325908},
{"title":"황금달래","address":"충남 태안군 고남면 만수길66","phone":"010-9001-3416","lat":36.4070713,"lng":126.4183637},
{"title":"베라데로","address":"충남 태안군 원청리 592","phone":"010-6456-9180","lat":36.6334397,"lng":126.3049112},
{"title":"파인앤애플 펜션","address":"충청남도 태안군 남면 몽산포길 112-22","phone":"010-3277-7027","lat":36.6760919,"lng":126.2854986},
{"title":"바다빛펜션","address":"충청남도 태안군 안면읍 승언리 339-227","phone":"010-6363-7390","lat":36.5088802,"lng":126.3335558},
{"title":"태양은가득히 펜션","address":"충청남도 태안군 안면읍 창기리 1362-5","phone":"010-4032-4121","lat":36.5702747,"lng":126.3240108},
{"title":"수수꽃다리펜션","address":"충청남도 태안군 안면읍 승언리 1342-17","phone":"010-9243-3988","lat":36.5148566,"lng":126.3388677},
{"title":"글로리아펜션","address":"충청남도 태안군 남면 양잠리 1098-13","phone":"010-7139-2490","lat":36.6422878,"lng":126.3096787},
{"title":"몽산포 홀리데이","address":"충청남도 태안군 남면 몽산포길 161","phone":"041-672-3043","lat":36.6748054,"lng":126.2802024},
{"title":"펜션브루나이","address":"충남 태안군 안면읍 승언리 339-526","phone":"010-6303-4719","lat":36.5115056,"lng":126.3436155},
{"title":"바다를찾는사람들펜션","address":"충청남도 태운군 안면읍 승언리 339-396","phone":"010-6717-1041","lat":36.5099729,"lng":126.3360496},
{"title":"샾펜션","address":"충청남도 태안군 안면읍 승언리 283-5","phone":"010-3411-3308","lat":36.4958413,"lng":126.3429648},
{"title":"모석원펜션","address":"충청남도 태안군 고남면 장곡리 141-4","phone":"010-4780-2690","lat":36.4543427,"lng":126.3893156},
{"title":"계룡산사계절펜션","address":"충청남도 공주시 계룡면 양화리 342-5번지","phone":"010-9534-2634","lat":36.331414,"lng":127.1682592},
{"title":"솔밭휴양림펜션","address":"충청남도 태안군 안면읍 중장리 184-7","phone":"010-9031-0695","lat":36.4850764,"lng":126.3612923},
{"title":"티니하우스","address":"충남 태안군 원북면 황촌리 799-3번지","phone":"010-4312-7272","lat":36.8825437,"lng":126.2023099},
{"title":"빌라노마드펜션","address":"충청남도 태안군 안면읍 신야리 724번지 샛별해수욕장내","phone":"010-2679-7998","lat":36.4586657,"lng":126.3350338},
{"title":"칸타빌레펜션","address":"충청남도 태안군 남면 원청리 512-131","phone":"010-9988-1038","lat":36.6372325,"lng":126.3016851},
{"title":"세잎클로버펜션","address":"충청남도 태안군 안면읍 방주길 55","phone":"010-3340-7277","lat":36.5711389,"lng":126.3315252},
{"title":"채플힐펜션","address":"충청남도 태안군 소원면 소근리 80","phone":"010-4802-3122","lat":36.8200411,"lng":126.1827008},
{"title":"행복한아침 펜션","address":"충청남도 태안군 안면읍 창기리 1385-18","phone":"010-9938-8181","lat":36.5691016,"lng":126.3235056},
{"title":"스마일펜션","address":"충청남도 태안군 안면읍 방포로 54-31","phone":"010-3753-4752","lat":37.7220813,"lng":127.278684},
{"title":"빨강펜션","address":"충청남도 태안군 안면읍 황도리 8-21","phone":"010-9485-2218","lat":36.5986194,"lng":126.3770878},
{"title":"오후의 스케치북","address":"충청남도 보령시 웅천읍 간드리 1길 5","phone":"010-3474-2950","lat":36.2432661,"lng":126.5469268},
{"title":"블루 오션 리조트","address":"충남 태안군 남면 몽산리 782-4번지","phone":"041-672-0188","lat":36.6748054,"lng":126.2802024},
{"title":"민어도펜션","address":"충남 태안군 원북면 발전로 633-45","phone":"010-8131-5577","lat":36.8858901,"lng":126.2185581},
{"title":"안면도늘푸른숲","address":"충청남도 태안군 안면읍 백사장1길 30-51","phone":"010-9506-0005","lat":36.5839344,"lng":126.3235412},
{"title":"노을빛언덕펜션","address":"충청남도 태안군 남면 몽대로 462","phone":"010-8335-2959","lat":36.6753496,"lng":126.274286},
{"title":"드림하우스펜션","address":"충청남도 태안군 남면 몽산포길 168","phone":"010-8335-2959","lat":36.6751104,"lng":126.279238},
{"title":"아침햇살황토펜션","address":"충청남도 태안군 남면 신장리 126-6","phone":"010-6406-5100","lat":36.6873813,"lng":126.2943799},
{"title":"라온산장","address":"충청남도 태안군 안면읍 창기리 206-53번지","phone":"041-672-7080","lat":36.5975783,"lng":126.3383541},
{"title":"미라클펜션","address":"충청남도 태안군 남면 원청리 510번지","phone":"010-3901-2432","lat":36.6395028,"lng":126.3058942},
{"title":"구름산장","address":"충청남도 태안군 안면읍 동마루2길 110","phone":"010-8924-9600","lat":36.5975261,"lng":126.3379708},
{"title":"그랑프리펜션","address":"충청남도 태안군 안면읍 승언리 1931-5","phone":"010-2005-2250","lat":36.5301768,"lng":126.3325552},
{"title":"개리비안베이","address":"충청남도 태안군 소원면 법산리 72","phone":"01039301340--","lat":36.7549795,"lng":126.2121122},
{"title":"나무향기","address":"충청남도 태안군 태안읍 송암로 578-60","phone":"010-5654-9537","lat":36.7381243,"lng":126.3097849},
{"title":"곰섬곰바위펜션","address":"충청남도 태안군 남면 신온3구 903-11번지","phone":"010-9083-6281","lat":36.6143796,"lng":126.2904677},
{"title":"더마루","address":"충청남도 태안군 안면읍 창기리 1236","phone":"010-2033-2447","lat":36.5729726,"lng":126.3257124},
{"title":"파라독스펜션","address":"충청남도 태안군 남면 마검포길 162-31","phone":"010-8916-6652","lat":36.6201728,"lng":126.304464},
{"title":"몽산포파도소리펜션","address":"충청남도 태안군 남면 몽산리 661-9번지","phone":"041-673-7785","lat":36.6739727,"lng":126.2699977},
{"title":"안면도 카리브해심비치펜션","address":"충청남도 태안군 안면읍 창기리 1292-54","phone":"010-4062-3520","lat":36.5733489,"lng":126.3154783},
{"title":"펜션어떤날","address":"충북 단양군 가곡면 사평3리 115-5","phone":"043-422-8104","lat":37.0283803,"lng":128.3854113},
{"title":"슈르르까펜션","address":"충청북도 단양군 대강면 직피리 359","phone":"010-2364-8123","lat":36.8830122,"lng":128.3387604},
{"title":"작은새재펜션","address":"충청북도 괴산군 연풍면 수옥정길 158-26","phone":"010-8730-3327","lat":36.8128278,"lng":128.0387339},
{"title":"글램핑스테이션","address":"충청북도 괴산군 칠성면 두천리 310-1","phone":"043-834-8877","lat":36.7991649,"lng":127.8243431},
{"title":"예솔펜션","address":"충청북도 단양군 단성면 가산리 선암계곡로 1080-31","phone":"010-2058-7672","lat":36.8989833,"lng":128.3040045}]
